[
  {
    "id": "980a5d8b-fa81-11ed-ae62-005056876845",
    "name": "Чехов, Садовая, д. 3, стр. 1",
    "isFolder": false,
    "isClosed": false,
    "isDeleted": false,
    "code": "000000439",
    "address": "Чехов, Садовая, д. 3, стр. 1 ",
    "regionId": "72cb1f71-fa80-11ed-ae62-005056876845",
    "lat": 55.14313,
    "lng": 37.47633
  },
  {
    "id": "503197ac-9606-11ec-ae57-005056871c8e",
    "name": "Рязань, Маяковского, 44Д (Стадион Спартак)",
    "isFolder": false,
    "isClosed": false,
    "isDeleted": false,
    "code": "000000381",
    "address": "Рязань, Маяковского, 44Д (Стадион Спартак) ",
    "regionId": "ecf240f0-b102-11e9-ae51-005056871c8e",
    "lat": 54.62277,
    "lng": 39.7413
  },
  {
    "id": "e5fafae4-fcd2-11ec-ae59-005056991fe0",
    "name": "Владикавказ, Карцинское шоссе, 9",
    "isFolder": false,
    "isClosed": false,
    "isDeleted": false,
    "code": "000000402",
    "address": "Владикавказ, Карцинское шоссе, 9",
    "regionId": "841bbaab-f8c8-11ec-814f-005056872826",
    "lat": 43.04159,
    "lng": 44.70352
  },
  {
    "id": "f607dc35-8561-11ec-ae60-005056876845",
    "name": "Саранск, Лодыгина, 14, стр. 2",
    "isFolder": false,
    "isClosed": false,
    "isDeleted": false,
    "code": "000000375",
    "address": "Саранск, Лодыгина, 14, стр. 2",
    "regionId": "fb8ff5ad-fb15-11eb-ae57-005056991fe0",
    "lat": 54.22141,
    "lng": 45.1957
  },
  {
    "id": "cc1a4d2c-5d80-11ee-851c-005056874eea",
    "name": "Раменское, шоссе Северное, 1",
    "isFolder": false,
    "isClosed": false,
    "isDeleted": false,
    "code": "000000448",
    "address": "Раменское, шоссе Северное, 1",
    "regionId": "4e24a28a-5d7f-11ee-851c-005056874eea",
    "lat": 55.58183,
    "lng": 38.21386
  },
  {
    "id": "f32012d1-b3bd-11eb-ae56-005056871c8e",
    "name": "Астрахань, Боевая, 83В",
    "isFolder": false,
    "isClosed": false,
    "isDeleted": false,
    "code": "000000334",
    "address": "Астрахань, Боевая, 83В",
    "regionId": "d24aa259-b3bd-11eb-ae56-005056871c8e",
    "lat": 46.32326,
    "lng": 48.02265
  },
  {
    "id": "04d4cceb-232e-11ed-ae59-005056991fe0",
    "name": "Бийск, Революции, 106",
    "isFolder": false,
    "isClosed": false,
    "isDeleted": false,
    "code": "000000410",
    "address": "Бийск, Революции, 106",
    "regionId": "b7a24041-0bad-11e8-ae47-005056991fe0",
    "lat": 52.54866,
    "lng": 85.21201
  },
  {
    "id": "073ba361-2c0b-11ec-814e-005056872826",
    "name": "Сочи, Авиационная, 3",
    "isFolder": false,
    "isClosed": false,
    "isDeleted": false,
    "code": "000000358",
    "address": "Сочи, Авиационная, 3",
    "regionId": "b6478403-dc6e-11e5-84e3-0050569911ac",
    "lat": 43.43555,
    "lng": 39.92842
  },
  {
    "id": "3cf66011-7f69-11e8-ae4a-005056991fe0",
    "name": "Железногорск, Советской армии, 44а",
    "isFolder": false,
    "isClosed": false,
    "isDeleted": false,
    "code": "000000161",
    "address": "Советской армии, 44 а",
    "regionId": "7c5c43a5-7f68-11e8-ae4a-005056991fe0",
    "lat": 56.25634,
    "lng": 93.52338
  },
  {
    "id": "9d2e35ef-e7d2-11e9-ae53-005056871c8e",
    "name": "Белово, Чкалова, 14а",
    "isFolder": false,
    "isClosed": false,
    "isDeleted": false,
    "code": "000000263",
    "address": "Белово, Чкалова, 14а",
    "regionId": "a45dcdee-e7d1-11e9-ae53-005056871c8e",
    "lat": 54.43288,
    "lng": 86.30332
  },
  {
    "id": "d82bfb21-2da1-11e8-ae47-005056991fe0",
    "name": "Братск, Янгеля, 43/4",
    "isFolder": false,
    "isClosed": false,
    "isDeleted": false,
    "code": "000000139",
    "address": "Янгеля, 43 дробь 4",
    "regionId": "dea390cc-740a-11e6-a0a4-0050569911ac",
    "lat": 56.15998,
    "lng": 101.60568
  },
  {
    "id": "cabb9b47-4365-11ed-ae58-005056871c8e",
    "name": "Костанай, Карбышева, 8/1",
    "isFolder": false,
    "isClosed": false,
    "isDeleted": false,
    "code": "000000415",
    "address": "Костанай, Карбышева, 8/1",
    "regionId": "b1e14bb0-c417-11eb-ae56-005056871c8e",
    "lat": 53.19914,
    "lng": 63.58765
  },
  {
    "id": "239fbaa0-838d-11e3-a76e-0050569934c7",
    "name": "Ангарск, Микрорайон, 17а, д. 21а",
    "isFolder": false,
    "isClosed": false,
    "isDeleted": false,
    "code": "000000004",
    "address": "Семнадцатый А микрорайон 21 А",
    "regionId": "2c3477d3-473d-11e6-92e8-0050569911ac",
    "lat": 52.49709,
    "lng": 103.84289
  },
  {
    "id": "5853068b-8fd3-11ec-814f-005056872826",
    "name": "Южно-Сахалинск, Ленина, 425",
    "isFolder": false,
    "isClosed": false,
    "isDeleted": false,
    "code": "000000380",
    "address": "Южно-Сахалинск, Ленина, 425",
    "regionId": "eb8cdc93-8fd1-11ec-814f-005056872826",
    "lat": 46.92779,
    "lng": 142.7335
  },
  {
    "id": "81729e2d-fbdd-11e6-a97d-0050569911ac",
    "name": "Барабинск, Островского 9, корпус 4",
    "isFolder": false,
    "isClosed": false,
    "isDeleted": false,
    "code": "000000073",
    "address": "Островского 9 корпус 4",
    "regionId": "f301560b-fbda-11e6-a97d-0050569911ac",
    "lat": 55.3477,
    "lng": 78.3405
  },
  {
    "id": "1d52f683-8576-11ec-ae60-005056876845",
    "name": "Брянск, Советская 81/1",
    "isFolder": false,
    "isClosed": false,
    "isDeleted": false,
    "code": "000000376",
    "address": "Брянск, Советская 81/1",
    "regionId": "f4723bd5-e0f4-11e7-ae44-005056991fe0",
    "lat": 53.25805,
    "lng": 34.34226
  },
  {
    "id": "6aca033b-3944-11ed-ae61-005056876845",
    "name": "Электросталь, Красная, 31",
    "isFolder": false,
    "isClosed": false,
    "isDeleted": false,
    "code": "000000413",
    "address": "Электросталь, Красная, 31",
    "regionId": "ff5f0611-3942-11ed-ae61-005056876845",
    "lat": 55.78238,
    "lng": 38.4539
  },
  {
    "id": "4a653921-820e-11e8-ae4a-005056991fe0",
    "name": "Санкт-Петербург, Магнитогорская, 40 Г1",
    "isFolder": false,
    "isClosed": false,
    "isDeleted": false,
    "code": "000000162",
    "address": "Магнитогорская, 40 Гэ 1",
    "regionId": "e27c7bc9-1ac1-11e8-ae47-005056991fe0",
    "lat": 59.9408,
    "lng": 30.43354
  },
  {
    "id": "e8f3c207-115c-11e8-ae47-005056991fe0",
    "name": "Ордынское, Октябрьская, 44/2",
    "isFolder": false,
    "isClosed": false,
    "isDeleted": false,
    "code": "000000133",
    "address": "Октябрьская, 44 дробь 2",
    "regionId": "4029fb01-115c-11e8-ae47-005056991fe0",
    "lat": 54.36253,
    "lng": 81.9036
  },
  {
    "id": "74676f26-aaeb-11e6-8182-0050569911ac",
    "name": "Бердск, Ленина 89/12",
    "isFolder": false,
    "isClosed": false,
    "isDeleted": false,
    "code": "000000064",
    "address": "Ленина 89 дробь 12",
    "regionId": "cb2dba9d-aae8-11e6-8182-0050569911ac",
    "lat": 54.76031,
    "lng": 83.11554
  },
  {
    "id": "a5bb79b7-d6f0-11e6-8fc9-0050569911ac",
    "name": "Новосибирск, Станционная, 59 к4",
    "isFolder": false,
    "isClosed": false,
    "isDeleted": false,
    "code": "000000068",
    "address": "Станционная, 59",
    "regionId": "6958b568-4686-11e3-9765-0050569934c7",
    "lat": 54.9968,
    "lng": 82.82864
  },
  {
    "id": "c9725cf6-6e70-11e6-a0a4-0050569911ac",
    "name": "Сергиев Посад, Новоугличское шоссе, 73",
    "isFolder": false,
    "isClosed": false,
    "isDeleted": false,
    "code": "000000056",
    "address": "Новоугличское шоссе, 73",
    "regionId": "34250bb8-6e61-11e6-a0a4-0050569911ac",
    "lat": 56.33386,
    "lng": 38.12961
  },
  {
    "id": "f732d94d-8705-11eb-ae56-005056991fe0",
    "name": "Санкт-Петербург, Благодатная, 12",
    "isFolder": false,
    "isClosed": false,
    "isDeleted": false,
    "code": "000000326",
    "address": "Санкт-Петербург, Благодатная, 12",
    "regionId": "e27c7bc9-1ac1-11e8-ae47-005056991fe0",
    "lat": 59.87626,
    "lng": 30.30923
  },
  {
    "id": "305b6a5b-99d8-11ec-ae58-005056991fe0",
    "name": "Астана, проспект Аль-Фараби (Улица Акжол), 24/2",
    "isFolder": false,
    "isClosed": false,
    "isDeleted": false,
    "code": "000000382",
    "address": "Астана, проспект Аль-Фараби (Улица Акжол), 24/2",
    "regionId": "e2ca5659-7ba4-11e9-ae51-005056991fe0",
    "lat": 51.18329,
    "lng": 71.45193
  },
  {
    "id": "81235391-e3d4-11ed-ae62-005056876845",
    "name": "Череповец, Боршодская, 22а",
    "isFolder": false,
    "isClosed": false,
    "isDeleted": false,
    "code": "000000437",
    "address": "Череповец, Боршодская, 22а",
    "regionId": "13c1150a-e3d2-11ed-ae62-005056876845",
    "lat": 59.13619,
    "lng": 37.98178
  },
  {
    "id": "98911d45-60c5-11e9-ae55-005056876845",
    "name": "Краснодар, Уральская, 131",
    "isFolder": false,
    "isClosed": false,
    "isDeleted": false,
    "code": "000000220",
    "address": "Уральская 131",
    "regionId": "308b0b5f-aeb5-11e5-84e3-0050569911ac",
    "lat": 45.04192,
    "lng": 39.10154
  },
  {
    "id": "2c236feb-8237-11e7-9411-0050569911ac",
    "name": "Краснодар, Солнечная, 57/2",
    "isFolder": false,
    "isClosed": false,
    "isDeleted": false,
    "code": "000000097",
    "address": "Солнечная, 57 дробь 2",
    "regionId": "308b0b5f-aeb5-11e5-84e3-0050569911ac",
    "lat": 45.07307,
    "lng": 39.01413
  },
  {
    "id": "3eaae7f9-0372-11ed-814f-005056872826",
    "name": "Алматы, Акжолтай, 10А",
    "isFolder": false,
    "isClosed": false,
    "isDeleted": false,
    "code": "000000404",
    "address": "Алматы, Акжолтай, 10А",
    "regionId": "d83db52f-0370-11ed-814f-005056872826",
    "lat": 43.35416,
    "lng": 76.84336
  },
  {
    "id": "298cab43-d500-11e3-b6b1-0050569934c7",
    "name": "Новосибирск, Военная, 4/1",
    "isFolder": false,
    "isClosed": false,
    "isDeleted": false,
    "code": "000000013",
    "address": "Военная 4 дробь 1",
    "regionId": "6958b568-4686-11e3-9765-0050569934c7",
    "lat": 55.0313,
    "lng": 82.93538
  },
  {
    "id": "6e52e373-839c-11ee-851e-00505687852c",
    "name": "Люберцы, Московская, 8А",
    "isFolder": false,
    "isClosed": false,
    "isDeleted": false,
    "code": "000000452",
    "address": "Люберцы, Московская, 8А",
    "regionId": "79c49839-f3bb-11ec-ae61-005056876845",
    "lat": 55.67268,
    "lng": 37.88011
  },
  {
    "id": "8dc0c961-ff92-11ed-8150-005056872826",
    "name": "Челябинск, Братьев Кашириных 147А",
    "isFolder": false,
    "isClosed": false,
    "isDeleted": false,
    "code": "000000440",
    "address": "Челябинск, Братьев Кашириных 147А",
    "regionId": "efebf0f6-dc6f-11e5-84e3-0050569911ac",
    "lat": 55.16869,
    "lng": 61.29742
  },
  {
    "id": "a7049cb3-3b47-11ee-ae60-005056871c8e",
    "name": "Москва, Северный бульвар, 9а",
    "isFolder": false,
    "isClosed": false,
    "isDeleted": false,
    "code": "000000446",
    "address": "Москва, Северный бульвар, 9а",
    "regionId": "b05636d1-1f03-11e5-b196-0050569934c7",
    "lat": 55.86697,
    "lng": 37.60999
  },
  {
    "id": "b922ff7b-03c4-11ec-ae56-005056871c8e",
    "name": "Москва, Ярославское шоссе, 25",
    "isFolder": false,
    "isClosed": false,
    "isDeleted": false,
    "code": "000000349",
    "address": "Москва, Ярославское шоссе, 25",
    "regionId": "b05636d1-1f03-11e5-b196-0050569934c7",
    "lat": 55.85939,
    "lng": 37.68713
  },
  {
    "id": "9db1175b-1481-11ee-ae5c-005056991fe0",
    "name": "Екатеринбург, Старых Большевиков, 1А",
    "isFolder": false,
    "isClosed": false,
    "isDeleted": false,
    "code": "000000442",
    "address": "Екатеринбург, Старых Большевиков, 1А",
    "regionId": "27a133cc-aeb6-11e5-84e3-0050569911ac",
    "lat": 56.884,
    "lng": 60.6374
  },
  {
    "id": "c61f9520-8d14-11eb-ae56-005056871c8e",
    "name": "Саратов, Чернышевского, 153",
    "isFolder": false,
    "isClosed": false,
    "isDeleted": false,
    "code": "000000328",
    "address": "Саратов, Чернышевского, 153",
    "regionId": "503ffc77-df64-11e9-ae53-005056871c8e",
    "lat": 51.52356,
    "lng": 46.03219
  },
  {
    "id": "07a80c21-88c5-11ee-851c-00505687f5ad",
    "name": "Новороссийск, Шоссейная, 114",
    "isFolder": false,
    "isClosed": false,
    "isDeleted": false,
    "code": "000000453",
    "address": "Новороссийск, Шоссейная, 114",
    "regionId": "9ffac95e-9880-11e9-ae51-005056871c8e",
    "lat": 44.67587,
    "lng": 37.75822
  },
  {
    "id": "15296c5b-1a59-11ee-ae5c-005056991fe0",
    "name": "Салехард, площадка 42, строение 1",
    "isFolder": false,
    "isClosed": false,
    "isDeleted": false,
    "code": "000000443",
    "address": "Салехард, площадка 42, строение 1",
    "regionId": "64cdce1a-1a56-11ee-ae5c-005056991fe0",
    "lat": 66.57162,
    "lng": 66.57271
  },
  {
    "id": "71ecda71-24f7-11ee-8159-005056872826",
    "name": "Липецк, Валентины Терешковой, д 39",
    "isFolder": false,
    "isClosed": false,
    "isDeleted": false,
    "code": "000000444",
    "address": "Липецк, Валентины Терешковой, д 39",
    "regionId": "b684c7fc-46b7-11e9-ae4e-005056991fe0",
    "lat": 52.61045,
    "lng": 39.57397
  },
  {
    "id": "96b24d6b-ead9-11e7-ae45-005056991fe0",
    "name": "Искитим, Советская, 397в",
    "isFolder": false,
    "isClosed": false,
    "isDeleted": false,
    "code": "000000124",
    "address": "Советская, 397 в",
    "regionId": "51992b38-ead5-11e7-ae45-005056991fe0",
    "lat": 54.61799,
    "lng": 83.31165
  },
  {
    "id": "f5949f67-617f-11ee-851c-00505687852c",
    "name": "Екатеринбург, Дружининская, 3",
    "isFolder": false,
    "isClosed": false,
    "isDeleted": false,
    "code": "000000449",
    "address": "Екатеринбург, Дружининская, 3",
    "regionId": "27a133cc-aeb6-11e5-84e3-0050569911ac",
    "lat": 56.88517,
    "lng": 60.50768
  },
  {
    "id": "5aa42d81-962e-11ed-814f-005056872826",
    "name": "Краснодар, Западный обход, 39/5",
    "isFolder": false,
    "isClosed": false,
    "isDeleted": false,
    "code": "000000426",
    "address": "Краснодар, Западный обход, 39/5",
    "regionId": "308b0b5f-aeb5-11e5-84e3-0050569911ac",
    "lat": 45.09066,
    "lng": 38.90465
  },
  {
    "id": "f42dade1-4f44-11ed-814f-005056872826",
    "name": "Ростов-на-Дону, пр-кт 40-летия Победы, 184",
    "isFolder": false,
    "isClosed": false,
    "isDeleted": false,
    "code": "000000418",
    "address": "Ростов-на-Дону, пр-кт 40-летия Победы, 184",
    "regionId": "629148fd-b3e7-11e7-ae44-005056991fe0",
    "lat": 47.2362,
    "lng": 39.81142
  },
  {
    "id": "f910c9a0-8fe0-11e9-ae51-005056871c8e",
    "name": "Ставрополь, 1-ая Промышленная, 4А",
    "isFolder": false,
    "isClosed": false,
    "isDeleted": false,
    "code": "000000238",
    "address": "Первая Промышленная 4 а",
    "regionId": "7be5efb1-91c1-11e5-9aef-0050569911ac",
    "lat": 45.04826,
    "lng": 41.91022
  },
  {
    "id": "c3fb0606-7915-11ee-851e-00505687852c",
    "name": "Раменское, шоссе Северное, 1(Кузовной)",
    "isFolder": false,
    "isClosed": false,
    "isDeleted": false,
    "code": "000000451",
    "address": "Раменское, шоссе Северное, 1",
    "regionId": "4e24a28a-5d7f-11ee-851c-005056874eea",
    "lat": 55.58183,
    "lng": 38.21386
  },
  {
    "id": "c25fe772-2fdb-11e7-9d01-0050569911ac",
    "name": "Новосибирск, Выборная, 158 б",
    "isFolder": false,
    "isClosed": false,
    "isDeleted": false,
    "code": "000000082",
    "address": "Выборная, 158б",
    "regionId": "6958b568-4686-11e3-9765-0050569934c7",
    "lat": 55.00427,
    "lng": 83.02832
  },
  {
    "id": "6d1c640e-b48e-11ec-814f-005056872826",
    "name": "Белореченск, Интернациональная, 168",
    "isFolder": false,
    "isClosed": false,
    "isDeleted": false,
    "code": "000000389",
    "address": "Белореченск, Интернациональная, 168",
    "regionId": "75b9031c-b4c2-11ec-814f-005056872826",
    "lat": 44.76921,
    "lng": 39.86091
  },
  {
    "id": "a5d15462-715b-11ee-851c-00505687852c",
    "name": "Санкт-Петербург, Культуры, 61 (предварительная)",
    "isFolder": false,
    "isClosed": false,
    "isDeleted": false,
    "code": "000000450",
    "address": "",
    "regionId": "e27c7bc9-1ac1-11e8-ae47-005056991fe0",
    "lat": 0,
    "lng": 0
  },
  {
    "id": "6c6bdb3d-a69b-11ed-ae5a-005056991fe0",
    "name": "Москва, Лобачевского, 114",
    "isFolder": false,
    "isClosed": false,
    "isDeleted": false,
    "code": "000000430",
    "address": "Москва, Лобачевского, 114",
    "regionId": "b05636d1-1f03-11e5-b196-0050569934c7",
    "lat": 55.69089,
    "lng": 37.47772
  },
  {
    "id": "a1614bd6-d613-11e6-8fc9-0050569911ac",
    "name": "Новосибирск, Аэропорт, 1Б",
    "isFolder": false,
    "isClosed": false,
    "isDeleted": false,
    "code": "000000066",
    "address": "Аэропорт, 1Б",
    "regionId": "6958b568-4686-11e3-9765-0050569934c7",
    "lat": 55.07971,
    "lng": 82.90767
  },
  {
    "id": "f805ced3-f3bd-11ec-ae61-005056876845",
    "name": "Люберцы,  Вертолетная, напротив д. 4/1",
    "isFolder": false,
    "isClosed": false,
    "isDeleted": false,
    "code": "000000399",
    "address": "Люберцы,  Вертолетная, напротив д. 4/1",
    "regionId": "79c49839-f3bb-11ec-ae61-005056876845",
    "lat": 55.70907,
    "lng": 37.95924
  },
  {
    "id": "f5f1aab6-37f6-11ee-ae69-005056876845",
    "name": "Усть-Каменогорск, Лихарева, 8/3",
    "isFolder": false,
    "isClosed": false,
    "isDeleted": false,
    "code": "000000445",
    "address": "Усть-Каменогорск, Лихарева, 8/3",
    "regionId": "dc217ae5-341d-11ea-ae5a-005056876845",
    "lat": 49.94875,
    "lng": 82.60461
  },
  {
    "id": "85cc82f1-c941-11ed-8150-005056872826",
    "name": "Комсомольск-на-Амуре, Кирова, 36, к 2",
    "isFolder": false,
    "isClosed": false,
    "isDeleted": false,
    "code": "000000432",
    "address": "Комсомольск-на-Амуре, Кирова, 36, к 2",
    "regionId": "a331cbd5-c93c-11ed-ae5a-005056991fe0",
    "lat": 50.54762,
    "lng": 137.0303
  },
  {
    "id": "2aefeb6f-7d9d-11e3-a76e-0050569934c7",
    "name": "Новосибирск, Тюменская, 91",
    "isFolder": false,
    "isClosed": false,
    "isDeleted": false,
    "code": "000000002",
    "address": "Тюменская, 91",
    "regionId": "6958b568-4686-11e3-9765-0050569934c7",
    "lat": 54.96755,
    "lng": 82.93537
  },
  {
    "id": "141a0ef4-71a8-11eb-ae5e-005056876845",
    "name": "Черепаново, п. Пригородный, 9",
    "isFolder": false,
    "isClosed": false,
    "isDeleted": false,
    "code": "000000322",
    "address": "Черепаново, п. Пригородный, 9",
    "regionId": "5269d545-71a6-11eb-ae5e-005056876845",
    "lat": 54.2205,
    "lng": 83.31929
  },
  {
    "id": "95c74632-a31b-11e5-9aef-0050569911ac",
    "name": "Томск, Шевченко, 32",
    "isFolder": false,
    "isClosed": false,
    "isDeleted": false,
    "code": "000000038",
    "address": "Шевченко, 32",
    "regionId": "15be1c8a-bd83-11e4-bc8a-0050569934c7",
    "lat": 56.47337,
    "lng": 84.99227
  },
  {
    "id": "68f33313-49e6-11ed-ae59-005056991fe0",
    "name": "Хабаровск, Шевчука, 22",
    "isFolder": false,
    "isClosed": false,
    "isDeleted": false,
    "code": "000000417",
    "address": "Хабаровск, Шевчука, 22",
    "regionId": "1949879c-b498-11df-84ca-00215abc817d",
    "lat": 48.45205,
    "lng": 135.09954
  },
  {
    "id": "b1525bc4-4a0f-11e5-a354-0050569911ac",
    "name": "Барнаул, пр.Калинина, 67м",
    "isFolder": false,
    "isClosed": false,
    "isDeleted": false,
    "code": "000000033",
    "address": "Проспект Калинина, 67 эм",
    "regionId": "23f93799-59c4-11e4-a686-0050569934c7",
    "lat": 53.3895,
    "lng": 83.7401
  },
  {
    "id": "ec631144-d23e-11eb-ae57-005056991fe0",
    "name": "Луга, Комсомольский проспект, 58",
    "isFolder": false,
    "isClosed": false,
    "isDeleted": false,
    "code": "000000342",
    "address": "Луга, Комсомольский проспект, 58",
    "regionId": "2a9997b3-d23d-11eb-ae57-005056991fe0",
    "lat": 58.7352,
    "lng": 29.84794
  },
  {
    "id": "05479672-7324-11e6-a0a4-0050569911ac",
    "name": "Ишим, Республики, 101",
    "isFolder": false,
    "isClosed": false,
    "isDeleted": false,
    "code": "000000057",
    "address": "Республики, 101",
    "regionId": "048346c1-74a7-11e6-b34b-0050569911ac",
    "lat": 56.13567,
    "lng": 69.52313
  },
  {
    "id": "976d9579-88f3-11e9-ae51-005056871c8e",
    "name": "Екатеринбург, Пархоменко, 51 (Кузовной)",
    "isFolder": false,
    "isClosed": false,
    "isDeleted": false,
    "code": "000000235",
    "address": "Пархоменко, 51",
    "regionId": "27a133cc-aeb6-11e5-84e3-0050569911ac",
    "lat": 56.74967,
    "lng": 60.67958
  },
  {
    "id": "943fad81-5a1e-11e9-ae53-005056876845",
    "name": "Куйбышев, Трудовая, 30",
    "isFolder": false,
    "isClosed": false,
    "isDeleted": false,
    "code": "000000217",
    "address": "Трудовая 30",
    "regionId": "b82593a5-27fe-11e8-ae47-005056991fe0",
    "lat": 55.45463,
    "lng": 78.33481
  },
  {
    "id": "1229d85e-48e6-11ed-814f-005056872826",
    "name": "Ковров, Космонавтов, 1, стр.3",
    "isFolder": false,
    "isClosed": false,
    "isDeleted": false,
    "code": "000000416",
    "address": "Ковров, Космонавтов, 1, стр.3",
    "regionId": "aee7286f-0d72-11e8-ae47-005056991fe0",
    "lat": 56.33692,
    "lng": 41.33265
  },
  {
    "id": "cb971a8b-ca9d-11e7-ae44-005056991fe0",
    "name": "Барнаул, Промышленная, 13г",
    "isFolder": false,
    "isClosed": false,
    "isDeleted": false,
    "code": "000000118",
    "address": "Промышленная, 13 гэ",
    "regionId": "23f93799-59c4-11e4-a686-0050569934c7",
    "lat": 53.33323,
    "lng": 83.80191
  },
  {
    "id": "9eaaa58b-c43c-11e7-ae44-005056991fe0",
    "name": "Новосибирск, Гаранина, 15, к.1",
    "isFolder": false,
    "isClosed": false,
    "isDeleted": false,
    "code": "000000117",
    "address": "Гаранина 15 корпус 1",
    "regionId": "6958b568-4686-11e3-9765-0050569934c7",
    "lat": 55.02706,
    "lng": 82.96743
  },
  {
    "id": "3d6373a6-7c02-11eb-ae5f-005056876845",
    "name": "Волгоград, Землячки, 39Г",
    "isFolder": false,
    "isClosed": false,
    "isDeleted": false,
    "code": "000000323",
    "address": "Волгоград, Землячки, 39Г",
    "regionId": "6b56ee21-f2e2-11e8-ae4c-005056991fe0",
    "lat": 48.76358,
    "lng": 44.51241
  },
  {
    "id": "6e1c8ff8-b3eb-11e7-ae44-005056991fe0",
    "name": "Ростов-на-Дону, Малиновского, 96",
    "isFolder": false,
    "isClosed": false,
    "isDeleted": false,
    "code": "000000112",
    "address": "Малиновского, 96",
    "regionId": "629148fd-b3e7-11e7-ae44-005056991fe0",
    "lat": 47.23952,
    "lng": 39.61471
  },
  {
    "id": "7da379e1-c5d5-11eb-ae56-005056871c8e",
    "name": "Волгоград, просп. Маршала Жукова, 74А",
    "isFolder": false,
    "isClosed": false,
    "isDeleted": false,
    "code": "000000338",
    "address": "Волгоград, просп. Маршала Жукова, 74А",
    "regionId": "6b56ee21-f2e2-11e8-ae4c-005056991fe0",
    "lat": 48.73164,
    "lng": 44.4975
  },
  {
    "id": "f1576f3b-50c4-11ed-ae58-005056871c8e",
    "name": "Заводоуковск, Энергетиков, 14А",
    "isFolder": false,
    "isClosed": false,
    "isDeleted": false,
    "code": "000000419",
    "address": "Заводоуковск, Энергетиков, 14А",
    "regionId": "7695e5aa-50c1-11ed-ae58-005056871c8e",
    "lat": 56.4928,
    "lng": 66.54002
  },
  {
    "id": "98b072a7-f952-11ec-814f-005056872826",
    "name": "Новоалтайск, Строительная, 5/5",
    "isFolder": false,
    "isClosed": false,
    "isDeleted": false,
    "code": "000000401",
    "address": "Новоалтайск, Строительная, 5/5",
    "regionId": "6559dc37-f960-11ec-ae58-005056871c8e",
    "lat": 53.40823,
    "lng": 83.92741
  },
  {
    "id": "108e753c-1fa4-11e5-b196-0050569934c7",
    "name": "Бутово, Феодосийская,1к11",
    "isFolder": false,
    "isClosed": false,
    "isDeleted": false,
    "code": "000000028",
    "address": "Феодосийская,1 корпус 11",
    "regionId": "b05636d1-1f03-11e5-b196-0050569934c7",
    "lat": 55.5621,
    "lng": 37.5728
  },
  {
    "id": "9fed52e8-0c07-11ea-ae5a-005056876845",
    "name": "Иркутск, Баррикад, 88Г",
    "isFolder": false,
    "isClosed": false,
    "isDeleted": false,
    "code": "000000272",
    "address": "Баррикад, 88 Гэ",
    "regionId": "6958b58b-4686-11e3-9765-0050569934c7",
    "lat": 52.291,
    "lng": 104.34873
  },
  {
    "id": "5ae30aed-c3be-11e4-bc8a-0050569934c7",
    "name": "Томск, Водяная, 84",
    "isFolder": false,
    "isClosed": false,
    "isDeleted": false,
    "code": "000000024",
    "address": "Водяная, 84",
    "regionId": "15be1c8a-bd83-11e4-bc8a-0050569934c7",
    "lat": 56.5134,
    "lng": 84.93584
  },
  {
    "id": "34eb05a3-c628-11e8-ae4c-005056991fe0",
    "name": "Новосибирск, пр.Строителей, 25 к.1 (Академ)",
    "isFolder": false,
    "isClosed": false,
    "isDeleted": false,
    "code": "000000182",
    "address": "проспект Строителей, дом 25, корпус 1",
    "regionId": "6958b568-4686-11e3-9765-0050569934c7",
    "lat": 54.85984,
    "lng": 83.09702
  },
  {
    "id": "b26e4541-38a0-11ec-814e-005056872826",
    "name": "Москва, Партийный переулок, 1, к4",
    "isFolder": false,
    "isClosed": false,
    "isDeleted": false,
    "code": "000000361",
    "address": "Москва, Партийный переулок, 1, к4",
    "regionId": "b05636d1-1f03-11e5-b196-0050569934c7",
    "lat": 55.72064,
    "lng": 37.63451
  },
  {
    "id": "46a7e2e8-2e73-11e8-ae47-005056991fe0",
    "name": "Барнаул, Георгия Исакова, 213Б/1",
    "isFolder": false,
    "isClosed": false,
    "isDeleted": false,
    "code": "000000140",
    "address": "Георгия Исакова, 213 Б дробь 1",
    "regionId": "23f93799-59c4-11e4-a686-0050569934c7",
    "lat": 53.3632,
    "lng": 83.69162
  },
  {
    "id": "9cf41654-54be-11ed-ae58-005056871c8e",
    "name": "Москва, проезд Чермянский , 7 стр.2",
    "isFolder": false,
    "isClosed": false,
    "isDeleted": false,
    "code": "000000420",
    "address": "Москва, проезд Чермянский , 7 стр.2",
    "regionId": "b05636d1-1f03-11e5-b196-0050569934c7",
    "lat": 55.88875,
    "lng": 37.63437
  },
  {
    "id": "7a5307f8-643b-11ea-ae52-005056991fe0",
    "name": "Барнаул, Балтийская, 68",
    "isFolder": false,
    "isClosed": false,
    "isDeleted": false,
    "code": "000000288",
    "address": "Балтийская, 68",
    "regionId": "23f93799-59c4-11e4-a686-0050569934c7",
    "lat": 53.33734,
    "lng": 83.66684
  },
  {
    "id": "16628142-815d-11eb-ae5f-005056876845",
    "name": "Вологда, Некрасовский переулок, д 1",
    "isFolder": false,
    "isClosed": false,
    "isDeleted": false,
    "code": "000000324",
    "address": "Вологда, Некрасовский переулок, д 1",
    "regionId": "eeec5bb9-815c-11eb-ae5f-005056876845",
    "lat": 59.23088,
    "lng": 39.90419
  },
  {
    "id": "37ad4bbd-cbf4-11e5-84e3-0050569911ac",
    "name": "Томск, Энергетическая, 2а",
    "isFolder": false,
    "isClosed": false,
    "isDeleted": false,
    "code": "000000043",
    "address": "Энергетическая, 2 А",
    "regionId": "15be1c8a-bd83-11e4-bc8a-0050569934c7",
    "lat": 56.51912,
    "lng": 85.0163
  },
  {
    "id": "5ab9c1bb-ce5a-11eb-ae60-005056876845",
    "name": "Иркутск, Рабочего Штаба, 62",
    "isFolder": false,
    "isClosed": false,
    "isDeleted": false,
    "code": "000000341",
    "address": "Иркутск, Рабочего Штаба, 62",
    "regionId": "6958b58b-4686-11e3-9765-0050569934c7",
    "lat": 52.31338,
    "lng": 104.30076
  },
  {
    "id": "9caae98d-3b6b-11eb-ae54-005056991fe0",
    "name": "Камень-на-Оби, Томская, 8",
    "isFolder": false,
    "isClosed": false,
    "isDeleted": false,
    "code": "000000318",
    "address": "Камень-на-Оби, Томская, 8",
    "regionId": "7360b4d3-3b6b-11eb-ae54-005056991fe0",
    "lat": 53.78875,
    "lng": 81.33232
  },
  {
    "id": "ac0121e5-047d-11ea-ae53-005056871c8e",
    "name": "Семей, Богенбай улы, 9",
    "isFolder": false,
    "isClosed": false,
    "isDeleted": false,
    "code": "000000269",
    "address": " Богембай улы, 9",
    "regionId": "7c33daba-047d-11ea-ae53-005056871c8e",
    "lat": 50.39787,
    "lng": 80.22757
  },
  {
    "id": "28cc0b83-5c56-11ee-851c-005056874eea",
    "name": "Серпухов, Окское шоссе, 6",
    "isFolder": false,
    "isClosed": false,
    "isDeleted": false,
    "code": "000000447",
    "address": "Серпухов, Окское шоссе, 6",
    "regionId": "03e4c10e-5c54-11ee-851c-005056874eea",
    "lat": 54.91368,
    "lng": 37.45295
  },
  {
    "id": "31fa7850-e99f-11ed-8150-005056872826",
    "name": "Астана, Мукана Тулебаева, 23",
    "isFolder": false,
    "isClosed": false,
    "isDeleted": false,
    "code": "000000438",
    "address": "Астана, Мукана Тулебаева, 23",
    "regionId": "e2ca5659-7ba4-11e9-ae51-005056991fe0",
    "lat": 51.13571,
    "lng": 71.52746
  },
  {
    "id": "dfb9f762-e728-11ec-814f-005056872826",
    "name": "Москва, п. Коммунарка, Сосенский Стан, 7 стр.1",
    "isFolder": false,
    "isClosed": false,
    "isDeleted": false,
    "code": "000000398",
    "address": "Москва, п. Коммунарка, Сосенский Стан, 7 стр.1",
    "regionId": "b05636d1-1f03-11e5-b196-0050569934c7",
    "lat": 55.5718,
    "lng": 37.46951
  },
  {
    "id": "6fa125ca-1f38-11e7-a97d-0050569911ac",
    "name": "Курган, Бажова,1",
    "isFolder": false,
    "isClosed": false,
    "isDeleted": false,
    "code": "000000078",
    "address": "Бажова,1",
    "regionId": "959db6c9-c4b1-11e5-84e3-0050569911ac",
    "lat": 55.42531,
    "lng": 65.27394
  },
  {
    "id": "3a83b9f0-c664-11ea-ae53-005056991fe0",
    "name": "Омск, Коммунальная, 8А",
    "isFolder": false,
    "isClosed": false,
    "isDeleted": false,
    "code": "000000301",
    "address": "Омск, Коммунальная, 8А",
    "regionId": "6958b56f-4686-11e3-9765-0050569934c7",
    "lat": 55.05505,
    "lng": 73.30751
  },
  {
    "id": "64545052-3337-11e9-ae4f-005056871c8e",
    "name": "Екатеринбург, Фрезеровщиков, д. 41а",
    "isFolder": false,
    "isClosed": false,
    "isDeleted": false,
    "code": "000000206",
    "address": "Фрезировщиков 41 а ",
    "regionId": "27a133cc-aeb6-11e5-84e3-0050569911ac",
    "lat": 56.90633,
    "lng": 60.62781
  },
  {
    "id": "7da48f6a-a66d-11eb-ae60-005056876845",
    "name": "Курган, Советская, 123а",
    "isFolder": false,
    "isClosed": false,
    "isDeleted": false,
    "code": "000000332",
    "address": "Курган, Советская, 123а",
    "regionId": "959db6c9-c4b1-11e5-84e3-0050569911ac",
    "lat": 55.43981,
    "lng": 65.35488
  },
  {
    "id": "9d2c3f4b-d2df-11ed-8150-005056872826",
    "name": "Тимашевск, 50 лет Октября, 83",
    "isFolder": false,
    "isClosed": false,
    "isDeleted": false,
    "code": "000000433",
    "address": "Тимашевск, 50 лет Октября, 83",
    "regionId": "87b4d8ff-d2de-11ed-8150-005056872826",
    "lat": 45.60936,
    "lng": 38.94616
  },
  {
    "id": "77d44c14-0388-11ed-814f-005056872826",
    "name": "Калининград, Московский проспект, 173",
    "isFolder": false,
    "isClosed": false,
    "isDeleted": false,
    "code": "000000405",
    "address": "Калининград, Московский проспект, 173",
    "regionId": "674f2cde-0385-11ed-814f-005056872826",
    "lat": 54.71065,
    "lng": 20.54572
  },
  {
    "id": "0162df55-c7d9-11ea-ae53-005056991fe0",
    "name": "Советский, Восточная промзона, 1А",
    "isFolder": false,
    "isClosed": false,
    "isDeleted": false,
    "code": "000000302",
    "address": "Советский, Восточная промзона, 1А",
    "regionId": "652b8985-c7d6-11ea-ae53-005056991fe0",
    "lat": 61.36123,
    "lng": 63.58961
  },
  {
    "id": "73745331-7042-11e8-ae49-005056991fe0",
    "name": "Московский, 1-й Микрорайон, 58, ст.1",
    "isFolder": false,
    "isClosed": false,
    "isDeleted": false,
    "code": "000000157",
    "address": "Московский, первый Микрорайон 58, строение 1",
    "regionId": "b05636d1-1f03-11e5-b196-0050569934c7",
    "lat": 55.59633,
    "lng": 37.3538
  },
  {
    "id": "b4e2e7c4-a979-11e7-ae44-005056991fe0",
    "name": "Новокузнецк, Орджоникидзе, 1Б",
    "isFolder": false,
    "isClosed": false,
    "isDeleted": false,
    "code": "000000107",
    "address": "Орджоникидзе, 1 Б",
    "regionId": "6958b576-4686-11e3-9765-0050569934c7",
    "lat": 53.76566,
    "lng": 87.10255
  },
  {
    "id": "2293a2bd-83d3-11e3-a76e-0050569934c7",
    "name": "Омск, Панфилова, 9",
    "isFolder": false,
    "isClosed": false,
    "isDeleted": false,
    "code": "000000010",
    "address": "Панфилова,  9",
    "regionId": "6958b56f-4686-11e3-9765-0050569934c7",
    "lat": 54.9567,
    "lng": 73.40234
  },
  {
    "id": "f046e3f0-53f9-11ec-ae60-005056876845",
    "name": "Москва, Ташкентская, 28, стр. 1",
    "isFolder": false,
    "isClosed": false,
    "isDeleted": false,
    "code": "000000366",
    "address": "Москва, Ташкентская, 28, стр. 1",
    "regionId": "b05636d1-1f03-11e5-b196-0050569934c7",
    "lat": 55.69916,
    "lng": 37.80608
  },
  {
    "id": "9e9e0ced-0194-11e4-b47f-0050569934c7",
    "name": "Омск, Богдана Хмельницкого, 91а",
    "isFolder": false,
    "isClosed": false,
    "isDeleted": false,
    "code": "000000014",
    "address": "Богдана  Хмельницкого, 91а",
    "regionId": "6958b56f-4686-11e3-9765-0050569934c7",
    "lat": 54.98643,
    "lng": 73.40989
  },
  {
    "id": "cb604d28-15ef-11e8-ae47-005056991fe0",
    "name": "Ленинск-Кузнецкий, Пушкина, 50А",
    "isFolder": false,
    "isClosed": false,
    "isDeleted": false,
    "code": "000000134",
    "address": "Пушкина, 50 А",
    "regionId": "dee3d91f-15ee-11e8-ae47-005056991fe0",
    "lat": 54.6768,
    "lng": 86.1826
  },
  {
    "id": "bd4f5c00-7a8a-11e8-ae4a-005056991fe0",
    "name": "Междуреченск, Орджоникидзе, 8а",
    "isFolder": false,
    "isClosed": false,
    "isDeleted": false,
    "code": "000000159",
    "address": "Орджоникидзе, 8 а",
    "regionId": "5d3fab89-7a8a-11e8-ae4a-005056991fe0",
    "lat": 53.7065,
    "lng": 88.00848
  },
  {
    "id": "1ff5ea92-04a0-11e8-ae47-005056991fe0",
    "name": "Новокузнецк, Кондомское шоссе, 6а, к.5",
    "isFolder": false,
    "isClosed": false,
    "isDeleted": false,
    "code": "000000129",
    "address": "КОндомское шоссе, 6 А, корпус 5",
    "regionId": "6958b576-4686-11e3-9765-0050569934c7",
    "lat": 53.73958,
    "lng": 87.16149
  },
  {
    "id": "4f5c782b-098c-11e9-ae4c-005056991fe0",
    "name": "Мыски, Транспортная, 2",
    "isFolder": false,
    "isClosed": false,
    "isDeleted": false,
    "code": "000000196",
    "address": "Транспортная, 2",
    "regionId": "416f3e9d-098b-11e9-ae4c-005056991fe0",
    "lat": 53.7305,
    "lng": 87.7115
  },
  {
    "id": "e52db7d0-1721-11e9-ae4d-005056991fe0",
    "name": "Омск, Барнаульская, 7/2",
    "isFolder": false,
    "isClosed": false,
    "isDeleted": false,
    "code": "000000197",
    "address": "Барнаульская, 7 дробь 2",
    "regionId": "6958b56f-4686-11e3-9765-0050569934c7",
    "lat": 55.00583,
    "lng": 73.40457
  },
  {
    "id": "fff6a9be-ff92-11ed-8150-005056872826",
    "name": "Уфа, Рихарда Зорге, 7",
    "isFolder": false,
    "isClosed": false,
    "isDeleted": false,
    "code": "000000441",
    "address": "Уфа, Рихарда Зорге, 7",
    "regionId": "2f6804cb-240b-11e7-a97d-0050569911ac",
    "lat": 54.74906,
    "lng": 55.98322
  },
  {
    "id": "d9eda740-02cc-11e9-ae4e-005056871c8e",
    "name": "Тюмень, Таллинская, 4а, корп,1",
    "isFolder": false,
    "isClosed": false,
    "isDeleted": false,
    "code": "000000194",
    "address": "Таллинская, 4 А, корпус 1",
    "regionId": "d7111802-f569-11e5-9ae2-0050569911ac",
    "lat": 57.09953,
    "lng": 65.63873
  },
  {
    "id": "0cd09619-1a22-11e9-ae4f-005056871c8e",
    "name": "Волжский, Пушкина, 105г",
    "isFolder": false,
    "isClosed": false,
    "isDeleted": false,
    "code": "000000199",
    "address": "Пушкина, 105 гэ",
    "regionId": "f777da8f-c54b-11e8-ae4c-005056991fe0",
    "lat": 48.76873,
    "lng": 44.82536
  },
  {
    "id": "1087229a-7152-11e9-ae51-005056871c8e",
    "name": "Волгодонск, Портовая, 13",
    "isFolder": false,
    "isClosed": false,
    "isDeleted": false,
    "code": "000000228",
    "address": "Портовая, 13",
    "regionId": "0688701d-714d-11e9-ae51-005056871c8e",
    "lat": 47.5273,
    "lng": 42.15486
  },
  {
    "id": "3e06c995-0942-11ed-814f-005056872826",
    "name": "Набережные Челны, проспект Чулман, 101",
    "isFolder": false,
    "isClosed": false,
    "isDeleted": false,
    "code": "000000406",
    "address": "Набережные Челны, проспект Чулман, 101",
    "regionId": "92200407-ba76-11e9-ae51-005056871c8e",
    "lat": 55.76632,
    "lng": 52.41283
  },
  {
    "id": "838127e9-3b7e-11e7-9d01-0050569911ac",
    "name": "Прокопьевск, Гайдара, 1А, к.1",
    "isFolder": false,
    "isClosed": false,
    "isDeleted": false,
    "code": "000000086",
    "address": "Гайдара, 1А, корпус 1",
    "regionId": "02904b62-3b7c-11e7-9d01-0050569911ac",
    "lat": 53.86189,
    "lng": 86.64694
  },
  {
    "id": "551d707f-38ac-11e8-ae47-005056991fe0",
    "name": "Кемерово, пр.Кузнецкий, 115а",
    "isFolder": false,
    "isClosed": false,
    "isDeleted": false,
    "code": "000000142",
    "address": "Проспект Кузнецкий, 115 а",
    "regionId": "3fab3500-d64d-11e6-8fc9-0050569911ac",
    "lat": 55.33181,
    "lng": 86.06035
  },
  {
    "id": "31b95c38-4a9b-11e8-ae49-005056991fe0",
    "name": "Краснодар, Сормовская, 10ж",
    "isFolder": false,
    "isClosed": false,
    "isDeleted": false,
    "code": "000000146",
    "address": "Сормовская, 10 ж",
    "regionId": "308b0b5f-aeb5-11e5-84e3-0050569911ac",
    "lat": 45.02293,
    "lng": 39.05823
  },
  {
    "id": "9229f9c6-62eb-11ec-ae57-005056991fe0",
    "name": "Архангельск, Карла Либкнехта, 36",
    "isFolder": false,
    "isClosed": false,
    "isDeleted": false,
    "code": "000000370",
    "address": "Архангельск, Карла Либкнехта, 36",
    "regionId": "f22e869b-6249-11e9-ae50-005056991fe0",
    "lat": 64.53941,
    "lng": 40.52894
  },
  {
    "id": "03c9f2ec-aa90-11e8-ae4c-005056991fe0",
    "name": "Балаково, Братьев Захаровых, 144/1",
    "isFolder": false,
    "isClosed": false,
    "isDeleted": false,
    "code": "000000175",
    "address": "Братьев Захаровых, 144 дробь1",
    "regionId": "f07a89ca-aa77-11e8-ae4c-005056991fe0",
    "lat": 52.03294,
    "lng": 47.78997
  },
  {
    "id": "78dc55ea-dcd6-11e8-ae4e-005056871c8e",
    "name": "Омск, Перелета, 5, корп.В",
    "isFolder": false,
    "isClosed": false,
    "isDeleted": false,
    "code": "000000187",
    "address": "Перелета, 5, корпус Вэ",
    "regionId": "6958b56f-4686-11e3-9765-0050569934c7",
    "lat": 54.99072,
    "lng": 73.28441
  },
  {
    "id": "f72873fd-1478-11ec-ae60-005056876845",
    "name": "Москва, Старокалужское шоссе, 65",
    "isFolder": false,
    "isClosed": false,
    "isDeleted": false,
    "code": "000000354",
    "address": "Москва, Старокалужское шоссе, 65",
    "regionId": "b05636d1-1f03-11e5-b196-0050569934c7",
    "lat": 55.66027,
    "lng": 37.53985
  },
  {
    "id": "e882c603-371e-11e9-ae4f-005056871c8e",
    "name": "Барнаул, Павловский тракт, 311 г (кузовной)",
    "isFolder": false,
    "isClosed": false,
    "isDeleted": false,
    "code": "000000208",
    "address": "Павловский тракт 311 гэ",
    "regionId": "23f93799-59c4-11e4-a686-0050569934c7",
    "lat": 53.3466,
    "lng": 83.6386
  },
  {
    "id": "d4a8dc41-c0b2-11e4-bc8a-0050569934c7",
    "name": "Омск, Конева, 65",
    "isFolder": false,
    "isClosed": false,
    "isDeleted": false,
    "code": "000000023",
    "address": "Конева, 65",
    "regionId": "6958b56f-4686-11e3-9765-0050569934c7",
    "lat": 54.97406,
    "lng": 73.30888
  },
  {
    "id": "62416be7-50ff-11ec-814e-005056872826",
    "name": "Балашиха, Пестово, 7, пом. 1 (Железнодорожный)",
    "isFolder": false,
    "isClosed": false,
    "isDeleted": false,
    "code": "000000365",
    "address": "Балашиха, Пестово, 7, пом. 1 (Железнодорожный)",
    "regionId": "ca6629f3-b964-11e7-ae44-005056991fe0",
    "lat": 55.75017,
    "lng": 38.05495
  },
  {
    "id": "9c1123fd-af13-11ec-ae61-005056876845",
    "name": "Барнаул, Павловский тракт, 81/1",
    "isFolder": false,
    "isClosed": false,
    "isDeleted": false,
    "code": "000000388",
    "address": "Барнаул, Павловский тракт, 81/1",
    "regionId": "23f93799-59c4-11e4-a686-0050569934c7",
    "lat": 53.34006,
    "lng": 83.71957
  },
  {
    "id": "d72b7ad9-b546-11ec-ae61-005056876845",
    "name": "Балашиха, шоссе Энтузиастов, 32б",
    "isFolder": false,
    "isClosed": false,
    "isDeleted": false,
    "code": "000000390",
    "address": "Балашиха, шоссе Энтузиастов, 32б",
    "regionId": "ca6629f3-b964-11e7-ae44-005056991fe0",
    "lat": 55.79305,
    "lng": 37.93724
  },
  {
    "id": "7aad713a-3045-11e9-ae4f-005056871c8e",
    "name": "Барнаул, Павловский тракт, 311 г",
    "isFolder": false,
    "isClosed": false,
    "isDeleted": false,
    "code": "000000204",
    "address": "Павловский тракт 311 гэ",
    "regionId": "23f93799-59c4-11e4-a686-0050569934c7",
    "lat": 53.3466,
    "lng": 83.6386
  },
  {
    "id": "6f43c0f1-e323-11e9-ae53-005056871c8e",
    "name": "Набережные Челны, Машиностроительная, 103",
    "isFolder": false,
    "isClosed": false,
    "isDeleted": false,
    "code": "000000261",
    "address": "Машиностроительная, 103",
    "regionId": "92200407-ba76-11e9-ae51-005056871c8e",
    "lat": 55.74285,
    "lng": 52.45664
  },
  {
    "id": "668f0d5e-8ef9-11ec-814f-005056872826",
    "name": "Мурманск, проспект Кирова, 60, к. 1",
    "isFolder": false,
    "isClosed": false,
    "isDeleted": false,
    "code": "000000379",
    "address": "Мурманск, проспект Кирова, 60, к. 1",
    "regionId": "3e2b8908-8ef9-11ec-814f-005056872826",
    "lat": 68.95155,
    "lng": 33.09622
  },
  {
    "id": "1d3d3950-15fb-11ec-ae60-005056876845",
    "name": "Астрахань, Софьи Перовской, 98з",
    "isFolder": false,
    "isClosed": false,
    "isDeleted": false,
    "code": "000000356",
    "address": "Астрахань, Софьи Перовской, 98з",
    "regionId": "d24aa259-b3bd-11eb-ae56-005056871c8e",
    "lat": 46.34693,
    "lng": 48.08125
  },
  {
    "id": "2e8a90fb-15ad-11ea-ae53-005056871c8e",
    "name": "Астана, Жирентаева, 6",
    "isFolder": false,
    "isClosed": false,
    "isDeleted": false,
    "code": "000000273",
    "address": "Жирентаева, 6",
    "regionId": "e2ca5659-7ba4-11e9-ae51-005056991fe0",
    "lat": 51.14843,
    "lng": 71.47615
  },
  {
    "id": "a1adf66f-a10b-11ec-814f-005056872826",
    "name": "Архангельск, проспект Московский, 33",
    "isFolder": false,
    "isClosed": false,
    "isDeleted": false,
    "code": "000000384",
    "address": "Архангельск, проспект Московский, 33",
    "regionId": "f22e869b-6249-11e9-ae50-005056991fe0",
    "lat": 64.53273,
    "lng": 40.59967
  },
  {
    "id": "c1ef2b8e-8999-11e8-ae4a-005056991fe0",
    "name": "Ачинск, пр-т Лапенкова, 9а",
    "isFolder": false,
    "isClosed": false,
    "isDeleted": false,
    "code": "000000166",
    "address": "Проспект Лапенкова 9 а",
    "regionId": "ff6a4bca-8998-11e8-ae4a-005056991fe0",
    "lat": 56.2469,
    "lng": 90.48559
  },
  {
    "id": "25c3ccb0-f8ed-11ec-814f-005056872826",
    "name": "Тольятти, Автозаводское Шоссе, 31",
    "isFolder": false,
    "isClosed": false,
    "isDeleted": false,
    "code": "000000400",
    "address": "Тольятти, Автозаводское Шоссе, 31",
    "regionId": "7f39cddc-4131-11e8-ae49-005056991fe0",
    "lat": 53.53448,
    "lng": 49.39473
  },
  {
    "id": "2293a2bf-83d3-11e3-a76e-0050569934c7",
    "name": "Омск, Королева, 30",
    "isFolder": false,
    "isClosed": false,
    "isDeleted": false,
    "code": "000000011",
    "address": "Проспект Академика Королёва, 30",
    "regionId": "6958b56f-4686-11e3-9765-0050569934c7",
    "lat": 55.0291,
    "lng": 73.33436
  },
  {
    "id": "425953db-46d4-11e8-ae49-005056991fe0",
    "name": "Омск, 60 лет Победы, 14",
    "isFolder": false,
    "isClosed": false,
    "isDeleted": false,
    "code": "000000144",
    "address": "60 лет Победы, 14",
    "regionId": "6958b56f-4686-11e3-9765-0050569934c7",
    "lat": 54.95555,
    "lng": 73.34325
  },
  {
    "id": "1825d815-6af6-11e9-ae50-005056991fe0",
    "name": "Рубцовск, пр-кт Ленина, 249Д",
    "isFolder": false,
    "isClosed": false,
    "isDeleted": false,
    "code": "000000225",
    "address": "проспект Ленина, 249 Д",
    "regionId": "f89f16f3-6af2-11e9-ae50-005056991fe0",
    "lat": 51.4801,
    "lng": 81.20265
  },
  {
    "id": "34c408cf-6b18-11e9-ae51-005056871c8e",
    "name": "Арамиль, Гарнизон, 17Д",
    "isFolder": false,
    "isClosed": false,
    "isDeleted": false,
    "code": "000000226",
    "address": "Гарнизон 17 Д",
    "regionId": "676b414f-6b15-11e9-ae51-005056871c8e",
    "lat": 56.69575,
    "lng": 60.79006
  },
  {
    "id": "0b8b38bd-ef2a-11e9-ae53-005056871c8e",
    "name": "Астана, Бактыораза Бейсекбаева, 16/1",
    "isFolder": false,
    "isClosed": false,
    "isDeleted": false,
    "code": "000000264",
    "address": "Бактыораза Бейсекбаева, 16 дробь 1",
    "regionId": "e2ca5659-7ba4-11e9-ae51-005056991fe0",
    "lat": 51.16834,
    "lng": 71.45783
  },
  {
    "id": "260fa212-da8d-11e9-ae52-005056991fe0",
    "name": "Абакан, Итыгина, 13В, стр. 1",
    "isFolder": false,
    "isClosed": false,
    "isDeleted": false,
    "code": "000000258",
    "address": "Итыгина, 13В",
    "regionId": "192f5a7c-da8d-11e9-ae52-005056991fe0",
    "lat": 53.71942,
    "lng": 91.40143
  },
  {
    "id": "3a73f04d-4ac6-11e9-ae4e-005056991fe0",
    "name": "Зеленогорск, Удачная 6",
    "isFolder": false,
    "isClosed": false,
    "isDeleted": false,
    "code": "000000212",
    "address": "Удачная, 6",
    "regionId": "87a87c13-4abf-11e9-ae4e-005056991fe0",
    "lat": 56.06542,
    "lng": 94.6069
  },
  {
    "id": "c1c24516-ee95-11ea-ae53-005056991fe0",
    "name": "Иркутск, Маяковского, 69Б",
    "isFolder": false,
    "isClosed": false,
    "isDeleted": false,
    "code": "000000305",
    "address": "Иркутск, Маяковского, 69Б",
    "regionId": "6958b58b-4686-11e3-9765-0050569934c7",
    "lat": 52.28475,
    "lng": 104.23649
  },
  {
    "id": "6cd0a73c-9bc6-11e9-ae51-005056991fe0",
    "name": "Казань, Лазарева, 11",
    "isFolder": false,
    "isClosed": false,
    "isDeleted": false,
    "code": "000000243",
    "address": "Лазарева, 11",
    "regionId": "d75d5dc8-c29e-11e7-ae44-005056991fe0",
    "lat": 55.81845,
    "lng": 49.0478
  },
  {
    "id": "69ae3e42-0bae-11e8-ae47-005056991fe0",
    "name": "Бийск, Шишкова, 47",
    "isFolder": false,
    "isClosed": false,
    "isDeleted": false,
    "code": "000000130",
    "address": "Шишкова, 47",
    "regionId": "b7a24041-0bad-11e8-ae47-005056991fe0",
    "lat": 52.52338,
    "lng": 85.24855
  },
  {
    "id": "813321c7-c13a-11e8-ae4c-005056991fe0",
    "name": "Барнаул, Солнечная поляна, 24е, к2",
    "isFolder": false,
    "isClosed": false,
    "isDeleted": false,
    "code": "000000178",
    "address": "Солнечная поляна 24 е, корпус 2",
    "regionId": "23f93799-59c4-11e4-a686-0050569934c7",
    "lat": 53.36673,
    "lng": 83.66061
  },
  {
    "id": "b6a1d034-0456-11ea-ae53-005056871c8e",
    "name": "Горячий Ключ, Кучерявого, 64д",
    "isFolder": false,
    "isClosed": false,
    "isDeleted": false,
    "code": "000000268",
    "address": "Кучерявого, 64 дэ",
    "regionId": "833f3a19-0456-11ea-ae53-005056871c8e",
    "lat": 44.6373,
    "lng": 39.11613
  },
  {
    "id": "2945b7dd-92b6-11eb-ae56-005056871c8e",
    "name": "Иркутск, Баррикад, 88Г (мойка)",
    "isFolder": false,
    "isClosed": false,
    "isDeleted": false,
    "code": "000000329",
    "address": "Иркутск, Баррикад, 88Г",
    "regionId": "6958b58b-4686-11e3-9765-0050569934c7",
    "lat": 52.291,
    "lng": 104.34873
  },
  {
    "id": "b7afcb15-5d87-11e9-ae51-005056871c8e",
    "name": "Владимир, Куйбышева, 22Д",
    "isFolder": false,
    "isClosed": false,
    "isDeleted": false,
    "code": "000000219",
    "address": "Куйбышева, 22Д",
    "regionId": "b6b4f165-5d85-11e9-ae51-005056871c8e",
    "lat": 56.17057,
    "lng": 40.39975
  },
  {
    "id": "9774ae20-a9d4-11e9-ae51-005056871c8e",
    "name": "Геленджик, Южная промышленная зона, 7",
    "isFolder": false,
    "isClosed": false,
    "isDeleted": false,
    "code": "000000246",
    "address": "Южная промышленная зона, 7",
    "regionId": "72439bdc-a9d4-11e9-ae51-005056871c8e",
    "lat": 44.55377,
    "lng": 38.12237
  },
  {
    "id": "aa2ec0c9-7524-11ec-ae60-005056876845",
    "name": "Ивантеевка, Трудовая, 7А",
    "isFolder": false,
    "isClosed": false,
    "isDeleted": false,
    "code": "000000372",
    "address": "Ивантеевка, Трудовая, 7А",
    "regionId": "35ac1aa7-7524-11ec-ae60-005056876845",
    "lat": 55.96937,
    "lng": 37.93187
  },
  {
    "id": "ba7bc333-c60b-11e8-ae51-005056876845",
    "name": "Благовещенск, Калинина, 149",
    "isFolder": false,
    "isClosed": false,
    "isDeleted": false,
    "code": "000000181",
    "address": "Калинина, 149",
    "regionId": "4fdff426-dc70-11e5-84e3-0050569911ac",
    "lat": 50.30325,
    "lng": 127.52989
  },
  {
    "id": "db05b91c-9ae3-11e8-ae4b-005056991fe0",
    "name": "Дзержинск, Красноармейская, 9А",
    "isFolder": false,
    "isClosed": false,
    "isDeleted": false,
    "code": "000000170",
    "address": "Красноармейская, 9 А",
    "regionId": "b3ac60f9-9ae1-11e8-ae4b-005056991fe0",
    "lat": 56.24718,
    "lng": 43.39853
  },
  {
    "id": "239fbaa2-838d-11e3-a76e-0050569934c7",
    "name": "Иркутск, Байкальская, 250/3",
    "isFolder": false,
    "isClosed": false,
    "isDeleted": false,
    "code": "000000005",
    "address": "Байкальская 250 дробь 3",
    "regionId": "6958b58b-4686-11e3-9765-0050569934c7",
    "lat": 52.25401,
    "lng": 104.33732
  },
  {
    "id": "768ed2b2-76b1-11e9-ae51-005056991fe0",
    "name": "Воткинск, Железнодорожная 2В",
    "isFolder": false,
    "isClosed": false,
    "isDeleted": false,
    "code": "000000230",
    "address": "Железнодорожная 2 В",
    "regionId": "79b6daab-76ae-11e9-ae51-005056991fe0",
    "lat": 57.04492,
    "lng": 54.02125
  },
  {
    "id": "35aaa08c-75f9-11e9-ae51-005056871c8e",
    "name": "Биробиджан, Текстильная, 5",
    "isFolder": false,
    "isClosed": false,
    "isDeleted": false,
    "code": "000000229",
    "address": "Текстильная, 5",
    "regionId": "19b7ec05-65e5-11e7-abd0-0050569911ac",
    "lat": 48.80215,
    "lng": 132.90499
  },
  {
    "id": "040aabc2-63e2-11e8-ae49-005056991fe0",
    "name": "Калуга, Болотникова, 23А",
    "isFolder": false,
    "isClosed": false,
    "isDeleted": false,
    "code": "000000151",
    "address": "Болотникова, 23 А",
    "regionId": "d5623389-63e0-11e8-ae49-005056991fe0",
    "lat": 54.52122,
    "lng": 36.28901
  },
  {
    "id": "b6316f44-d35e-11ec-ae61-005056876845",
    "name": "Йошкар-Ола, Фестивальная, 70Г",
    "isFolder": false,
    "isClosed": false,
    "isDeleted": false,
    "code": "000000392",
    "address": "Йошкар-Ола, Фестивальная, 70Г",
    "regionId": "0f3974bb-d3a8-11ec-ae58-005056991fe0",
    "lat": 56.64275,
    "lng": 47.83224
  },
  {
    "id": "35b481f4-4e63-11ec-ae60-005056876845",
    "name": "Великий Новгород, Рабочая, 11",
    "isFolder": false,
    "isClosed": false,
    "isDeleted": false,
    "code": "000000364",
    "address": "Великий Новгород, Рабочая, 11",
    "regionId": "6c798653-4e62-11ec-ae60-005056876845",
    "lat": 58.55838,
    "lng": 31.2635
  },
  {
    "id": "b3a1930f-5306-11ea-ae52-005056991fe0",
    "name": "Екатеринбург, пр-кт Космонавтов, 98А",
    "isFolder": false,
    "isClosed": false,
    "isDeleted": false,
    "code": "000000287",
    "address": "проспект Космонавтов  98 А",
    "regionId": "27a133cc-aeb6-11e5-84e3-0050569911ac",
    "lat": 56.91112,
    "lng": 60.6131
  },
  {
    "id": "a42570d8-9a99-11ec-814f-005056872826",
    "name": "Калуга, Московская, 334",
    "isFolder": false,
    "isClosed": false,
    "isDeleted": false,
    "code": "000000383",
    "address": "Калуга, Московская, 334",
    "regionId": "d5623389-63e0-11e8-ae49-005056991fe0",
    "lat": 54.57522,
    "lng": 36.25503
  },
  {
    "id": "239fbaa6-838d-11e3-a76e-0050569934c7",
    "name": "Иркутск, Доватора, 39е",
    "isFolder": false,
    "isClosed": false,
    "isDeleted": false,
    "code": "000000007",
    "address": "Генерала Доватора, 39 е",
    "regionId": "6958b58b-4686-11e3-9765-0050569934c7",
    "lat": 52.33072,
    "lng": 104.23764
  },
  {
    "id": "9c8227b3-caff-11ea-ae53-005056991fe0",
    "name": "Долгопрудный, Лихачёвский проспект, 16",
    "isFolder": false,
    "isClosed": false,
    "isDeleted": false,
    "code": "000000303",
    "address": "Долгопрудный, Лихачёвский проспект, 16",
    "regionId": "899554c3-caff-11ea-ae53-005056991fe0",
    "lat": 55.91519,
    "lng": 37.49677
  },
  {
    "id": "1375f6c4-90f9-11e6-896f-0050569911ac",
    "name": "Владивосток, Выселковая, 171",
    "isFolder": false,
    "isClosed": false,
    "isDeleted": false,
    "code": "000000061",
    "address": "Выселковая, 171",
    "regionId": "be0fc487-aeb5-11e5-84e3-0050569911ac",
    "lat": 43.15946,
    "lng": 131.94374
  },
  {
    "id": "4760b4fd-ac75-11ee-851c-00505687f5ad",
    "name": "Анапа, Ленина, 184д",
    "isFolder": false,
    "isClosed": false,
    "isDeleted": false,
    "code": "000000454",
    "address": "Анапа, Ленина, 184д",
    "regionId": "86181221-ac74-11ee-851c-00505687f5ad",
    "lat": 44.86966,
    "lng": 37.33261
  },
  {
    "id": "bf1494e4-740c-11e6-a0a4-0050569911ac",
    "name": "Братск, Мечтателей, 3, стр.1",
    "isFolder": false,
    "isClosed": false,
    "isDeleted": false,
    "code": "000000058",
    "address": "Мечтателей, 3, строение 1",
    "regionId": "dea390cc-740a-11e6-a0a4-0050569911ac",
    "lat": 56.30887,
    "lng": 101.7414
  },
  {
    "id": "8fb4296c-88b1-11ea-ae53-005056871c8e",
    "name": "Великие Луки, Новоселенинская, 13",
    "isFolder": false,
    "isClosed": false,
    "isDeleted": false,
    "code": "000000297",
    "address": "Великие Луки, Новоселенинская, 13",
    "regionId": "3375f3d5-88b1-11ea-ae53-005056871c8e",
    "lat": 56.33488,
    "lng": 30.55297
  },
  {
    "id": "ceb4f269-c29f-11e7-ae44-005056991fe0",
    "name": "Казань, Дементьева, 18",
    "isFolder": false,
    "isClosed": false,
    "isDeleted": false,
    "code": "000000116",
    "address": "Дементьева, 18",
    "regionId": "d75d5dc8-c29e-11e7-ae44-005056991fe0",
    "lat": 55.85766,
    "lng": 49.10286
  },
  {
    "id": "47f72e10-5305-11ea-ae52-005056991fe0",
    "name": "Выкса, Досчатинское шоссе, 26",
    "isFolder": false,
    "isClosed": false,
    "isDeleted": false,
    "code": "000000286",
    "address": "Досчатинское шоссе 26",
    "regionId": "34f92ec8-5305-11ea-ae52-005056991fe0",
    "lat": 55.34225,
    "lng": 42.15458
  },
  {
    "id": "377eacea-3847-11eb-ae54-005056871c8e",
    "name": "Динская станица, Пластуновская, 42",
    "isFolder": false,
    "isClosed": false,
    "isDeleted": false,
    "code": "000000317",
    "address": "Динская станица, Пластуновская, 42",
    "regionId": "f408a2a7-3847-11eb-ae54-005056871c8e",
    "lat": 45.22917,
    "lng": 39.22457
  },
  {
    "id": "97644a63-df02-11e7-ae44-005056991fe0",
    "name": "Екатеринбург, Академика Вонсовского, 1ж",
    "isFolder": false,
    "isClosed": false,
    "isDeleted": false,
    "code": "000000119",
    "address": "Академика Вонсовского, 1 жэ",
    "regionId": "27a133cc-aeb6-11e5-84e3-0050569911ac",
    "lat": 56.77689,
    "lng": 60.56515
  },
  {
    "id": "388a73a8-b5e4-11ee-851e-00505687852c",
    "name": "Красногорск (предварительная)",
    "isFolder": false,
    "isClosed": false,
    "isDeleted": false,
    "code": "000000456",
    "address": "",
    "regionId": "5bb39230-b5e3-11ee-851e-00505687852c",
    "lat": 0,
    "lng": 0
  },
  {
    "id": "e37aa487-6162-11e8-ae49-005056991fe0",
    "name": "Екатеринбург, Пархоменко, 51",
    "isFolder": false,
    "isClosed": false,
    "isDeleted": false,
    "code": "000000150",
    "address": "Пархоменко, 51",
    "regionId": "27a133cc-aeb6-11e5-84e3-0050569911ac",
    "lat": 56.74967,
    "lng": 60.67958
  },
  {
    "id": "737f8da4-d758-11ec-ae57-005056871c8e",
    "name": "Жуковский, Кооперативная, 30",
    "isFolder": false,
    "isClosed": false,
    "isDeleted": false,
    "code": "000000393",
    "address": "Жуковский, Кооперативная, 30",
    "regionId": "c7041795-f740-11ec-ae61-005056876845",
    "lat": 55.59276,
    "lng": 38.09742
  },
  {
    "id": "2cb48080-ad70-11e7-ae44-005056991fe0",
    "name": "Биробиджан, Советская, 123",
    "isFolder": false,
    "isClosed": false,
    "isDeleted": false,
    "code": "000000109",
    "address": "Советская, 123  ",
    "regionId": "19b7ec05-65e5-11e7-abd0-0050569911ac",
    "lat": 48.76614,
    "lng": 132.94654
  },
  {
    "id": "e35f3626-e0e9-11e7-ae44-005056991fe0",
    "name": "Златоуст, Панфилова, 4а",
    "isFolder": false,
    "isClosed": false,
    "isDeleted": false,
    "code": "000000120",
    "address": "Панфилова, 4 а",
    "regionId": "c8b4db7c-e0e8-11e7-ae44-005056991fe0",
    "lat": 55.1031,
    "lng": 59.68632
  },
  {
    "id": "47146862-81b6-11e9-ae51-005056991fe0",
    "name": "Волгоград, Аптечный проезд, 1А",
    "isFolder": false,
    "isClosed": false,
    "isDeleted": false,
    "code": "000000234",
    "address": "Аптечный проезд, 1 А",
    "regionId": "6b56ee21-f2e2-11e8-ae4c-005056991fe0",
    "lat": 48.75815,
    "lng": 44.47776
  },
  {
    "id": "82cfca8e-2ad7-11e9-ae4f-005056871c8e",
    "name": "Благовещенск, Калинина, 149 (мойка)",
    "isFolder": false,
    "isClosed": false,
    "isDeleted": false,
    "code": "000000203",
    "address": "Калинина 149",
    "regionId": "4fdff426-dc70-11e5-84e3-0050569911ac",
    "lat": 50.30325,
    "lng": 127.52989
  },
  {
    "id": "d7978904-a0db-11e7-ae44-005056991fe0",
    "name": "Белгород, Корочанская, 85а",
    "isFolder": false,
    "isClosed": false,
    "isDeleted": false,
    "code": "000000105",
    "address": "Корочанская, 85 а",
    "regionId": "e73a5aa7-a0da-11e7-ae44-005056991fe0",
    "lat": 50.58573,
    "lng": 36.62463
  },
  {
    "id": "e0c88bdb-8543-11ea-ae53-005056871c8e",
    "name": "Иркутск, КУЗОВНОЙ, Академическая, 25/1",
    "isFolder": false,
    "isClosed": false,
    "isDeleted": false,
    "code": "000000292",
    "address": "Академическая  25 дробь 1",
    "regionId": "6958b58b-4686-11e3-9765-0050569934c7",
    "lat": 52.23484,
    "lng": 104.29816
  },
  {
    "id": "a60bf0d7-e0f6-11e7-ae44-005056991fe0",
    "name": "Брянск, пр.Московский, 37/1",
    "isFolder": false,
    "isClosed": false,
    "isDeleted": false,
    "code": "000000121",
    "address": "Проспект Московский, 37 дробь 1",
    "regionId": "f4723bd5-e0f4-11e7-ae44-005056991fe0",
    "lat": 53.21783,
    "lng": 34.41023
  },
  {
    "id": "bcbdbdfd-f2e3-11e8-ae4c-005056991fe0",
    "name": "Волгоград, Мясникова, 33",
    "isFolder": false,
    "isClosed": false,
    "isDeleted": false,
    "code": "000000190",
    "address": "Мясникова, 33",
    "regionId": "6b56ee21-f2e2-11e8-ae4c-005056991fe0",
    "lat": 48.82335,
    "lng": 44.62414
  },
  {
    "id": "4acc3ff8-fcf5-11e8-ae52-005056876845",
    "name": "Большой Камень, Пригородная, 2",
    "isFolder": false,
    "isClosed": false,
    "isDeleted": false,
    "code": "000000193",
    "address": "Пригородная, 2",
    "regionId": "0f411a99-fcf0-11e8-ae52-005056876845",
    "lat": 43.12038,
    "lng": 132.40106
  },
  {
    "id": "5c4a4859-6be6-11e5-a354-0050569911ac",
    "name": "Новосибирск, Петухова, 2",
    "isFolder": false,
    "isClosed": false,
    "isDeleted": false,
    "code": "000000035",
    "address": "Петухова, 2",
    "regionId": "6958b568-4686-11e3-9765-0050569934c7",
    "lat": 54.94529,
    "lng": 82.84356
  },
  {
    "id": "ceda7834-e6ee-11e7-ae44-005056991fe0",
    "name": "Казань, Родины, 11а, кор.1",
    "isFolder": false,
    "isClosed": false,
    "isDeleted": false,
    "code": "000000123",
    "address": "Родины 11 а, корпус 1",
    "regionId": "d75d5dc8-c29e-11e7-ae44-005056991fe0",
    "lat": 55.77162,
    "lng": 49.20021
  },
  {
    "id": "493ec234-8164-11eb-ae5f-005056876845",
    "name": "Кемерово, Сосновый бульвар, 3Б, Рудничный район",
    "isFolder": false,
    "isClosed": false,
    "isDeleted": false,
    "code": "000000325",
    "address": "Кемерово, Сосновый бульвар, 3Б, Рудничный район",
    "regionId": "3fab3500-d64d-11e6-8fc9-0050569911ac",
    "lat": 55.38977,
    "lng": 86.12117
  },
  {
    "id": "f6a98fd8-c564-11e8-ae4c-005056991fe0",
    "name": "Калуга, Зерновая, 21а, к.2",
    "isFolder": false,
    "isClosed": false,
    "isDeleted": false,
    "code": "000000180",
    "address": "Зерновая 21 а, корпус 2",
    "regionId": "d5623389-63e0-11e8-ae49-005056991fe0",
    "lat": 54.54049,
    "lng": 36.30599
  },
  {
    "id": "eb4e07e2-4345-11eb-ae54-005056871c8e",
    "name": "Мелеуз, Смоленская 198, стр. 9",
    "isFolder": false,
    "isClosed": false,
    "isDeleted": false,
    "code": "000000319",
    "address": "Мелеуз, Смоленская 198, стр. 9",
    "regionId": "94f7514e-4344-11eb-ae54-005056871c8e",
    "lat": 52.96764,
    "lng": 55.95676
  },
  {
    "id": "2310a881-352d-11eb-ae54-005056991fe0",
    "name": "Красноярск, Калинина, 88м",
    "isFolder": false,
    "isClosed": false,
    "isDeleted": false,
    "code": "000000316",
    "address": "Красноярск, Калинина, 88м",
    "regionId": "decbf314-8981-11e3-a76e-0050569934c7",
    "lat": 56.04745,
    "lng": 92.77258
  },
  {
    "id": "5af91c44-d796-11e5-84e3-0050569911ac",
    "name": "Махачкала, Бейбулатова, 28",
    "isFolder": false,
    "isClosed": false,
    "isDeleted": false,
    "code": "000000044",
    "address": "Бейбулатова, 28",
    "regionId": "56845021-d792-11e5-84e3-0050569911ac",
    "lat": 42.96743,
    "lng": 47.5323
  },
  {
    "id": "06c903b0-b0f3-11e8-ae4b-005056876845",
    "name": "Кемерово, пр.Октябрьский, 30",
    "isFolder": false,
    "isClosed": false,
    "isDeleted": false,
    "code": "000000176",
    "address": "Проспект Октябрьский, 30",
    "regionId": "3fab3500-d64d-11e6-8fc9-0050569911ac",
    "lat": 55.34923,
    "lng": 86.12772
  },
  {
    "id": "3e0b50b0-f769-11e7-ae45-005056991fe0",
    "name": "Кулебаки, Бутова, 7",
    "isFolder": false,
    "isClosed": false,
    "isDeleted": false,
    "code": "000000127",
    "address": "Бутова, 7",
    "regionId": "d759a658-f765-11e7-ae45-005056991fe0",
    "lat": 55.41648,
    "lng": 42.52872
  },
  {
    "id": "357dc3eb-9387-11eb-ae56-005056871c8e",
    "name": "Караганда, Бензинная, 1",
    "isFolder": false,
    "isClosed": false,
    "isDeleted": false,
    "code": "000000330",
    "address": "Караганда, Бензинная, 1",
    "regionId": "489cba18-27ed-11eb-ae54-005056871c8e",
    "lat": 49.81546,
    "lng": 73.13922
  },
  {
    "id": "b517ef31-8b10-11e8-ae4a-005056991fe0",
    "name": "Королёв, Пионерская, 51а",
    "isFolder": false,
    "isClosed": false,
    "isDeleted": false,
    "code": "000000167",
    "address": "Пионерская, 51 а",
    "regionId": "823d52b7-8b0f-11e8-ae4a-005056991fe0",
    "lat": 55.91444,
    "lng": 37.82873
  },
  {
    "id": "f8937ba7-8b3d-11e9-ae51-005056871c8e",
    "name": "Кемерово, Радищева, 1В",
    "isFolder": false,
    "isClosed": false,
    "isDeleted": false,
    "code": "000000236",
    "address": "Радищева 1 В",
    "regionId": "3fab3500-d64d-11e6-8fc9-0050569911ac",
    "lat": 55.31986,
    "lng": 86.09028
  },
  {
    "id": "0c016817-a53e-11ea-ae5a-005056876845",
    "name": "Краснодар, Автомобильная, 5 (Vianor FIT SERVICE)",
    "isFolder": false,
    "isClosed": false,
    "isDeleted": false,
    "code": "000000299",
    "address": "Автомобильная, 5",
    "regionId": "308b0b5f-aeb5-11e5-84e3-0050569911ac",
    "lat": 45.09219,
    "lng": 38.99314
  },
  {
    "id": "ce8e198c-1fc0-11e5-b196-0050569934c7",
    "name": "Красноярск, Солнечная, 12, стр.2",
    "isFolder": false,
    "isClosed": false,
    "isDeleted": false,
    "code": "000000029",
    "address": "Солнечная 12, строение 2",
    "regionId": "decbf314-8981-11e3-a76e-0050569934c7",
    "lat": 56.0323,
    "lng": 93.0191
  },
  {
    "id": "93368a85-6d9d-11e6-a0a4-0050569911ac",
    "name": "Москва, 6 улица Новые Сады, д.2, к.1",
    "isFolder": false,
    "isClosed": false,
    "isDeleted": false,
    "code": "000000055",
    "address": "шестая улица Новые Сады, дом 2, корпус 1",
    "regionId": "b05636d1-1f03-11e5-b196-0050569934c7",
    "lat": 55.65139,
    "lng": 37.34618
  },
  {
    "id": "eec0ba44-c3bb-11e9-ae51-005056991fe0",
    "name": "Карталы, Братьев Кашириных, 3Г",
    "isFolder": false,
    "isClosed": false,
    "isDeleted": false,
    "code": "000000253",
    "address": "Братьев Кашириных, 3 ГЭ",
    "regionId": "a8c078b2-c3bb-11e9-ae51-005056991fe0",
    "lat": 53.06346,
    "lng": 60.62784
  },
  {
    "id": "f1cf7d61-8988-11e3-a76e-0050569934c7",
    "name": "Красноярск, Маерчака, 53д",
    "isFolder": false,
    "isClosed": false,
    "isDeleted": false,
    "code": "000000012",
    "address": "Маерчак+а, 53 д",
    "regionId": "decbf314-8981-11e3-a76e-0050569934c7",
    "lat": 56.03066,
    "lng": 92.8243
  },
  {
    "id": "7fa54800-b919-11eb-ae60-005056876845",
    "name": "Москва, Верхние поля, 2, помещение VIII",
    "isFolder": false,
    "isClosed": false,
    "isDeleted": false,
    "code": "000000336",
    "address": "Москва, Верхние поля, 2, помещение VIII",
    "regionId": "b05636d1-1f03-11e5-b196-0050569934c7",
    "lat": 55.66126,
    "lng": 37.74284
  },
  {
    "id": "b24f9773-0dec-11e6-aaa0-0050569911ac",
    "name": "Красноярск, Авиаторов, 2Е",
    "isFolder": false,
    "isClosed": false,
    "isDeleted": false,
    "code": "000000050",
    "address": "Авиаторов, 2 А",
    "regionId": "decbf314-8981-11e3-a76e-0050569934c7",
    "lat": 56.04623,
    "lng": 92.92333
  },
  {
    "id": "cab2744e-0d20-11e7-a97d-0050569911ac",
    "name": "Красноярск, 60 лет Октября, 90а",
    "isFolder": false,
    "isClosed": false,
    "isDeleted": false,
    "code": "000000075",
    "address": "60 лет Октября, 90 а",
    "regionId": "decbf314-8981-11e3-a76e-0050569934c7",
    "lat": 55.97909,
    "lng": 92.87137
  },
  {
    "id": "9c4046f3-46ba-11e9-ae4e-005056991fe0",
    "name": "Липецк, Поперечный проезд, 1А стр 1",
    "isFolder": false,
    "isClosed": false,
    "isDeleted": false,
    "code": "000000210",
    "address": "Поперечный проезд, 1 А строение 1",
    "regionId": "b684c7fc-46b7-11e9-ae4e-005056991fe0",
    "lat": 52.61664,
    "lng": 39.54155
  },
  {
    "id": "8b8da40f-8d14-11eb-ae56-005056871c8e",
    "name": "Киров, Блюхера, 8е",
    "isFolder": false,
    "isClosed": false,
    "isDeleted": false,
    "code": "000000327",
    "address": "Киров, Блюхера, 8е",
    "regionId": "21c9f74e-e53e-11e7-ae44-005056991fe0",
    "lat": 58.58523,
    "lng": 49.68512
  },
  {
    "id": "923f97d9-85dd-11ea-ae53-005056871c8e",
    "name": "Краснодар, Северная, 299",
    "isFolder": false,
    "isClosed": false,
    "isDeleted": false,
    "code": "000000293",
    "address": "Северная 299",
    "regionId": "308b0b5f-aeb5-11e5-84e3-0050569911ac",
    "lat": 45.03986,
    "lng": 38.97926
  },
  {
    "id": "f7aaa2b2-c4b2-11e5-84e3-0050569911ac",
    "name": "Курган, пр.Маршала Голикова, 6",
    "isFolder": false,
    "isClosed": false,
    "isDeleted": false,
    "code": "000000040",
    "address": "проспект Маршала Голикова, 6",
    "regionId": "959db6c9-c4b1-11e5-84e3-0050569911ac",
    "lat": 55.47191,
    "lng": 65.29181
  },
  {
    "id": "22411249-a6aa-11e8-ae4b-005056876845",
    "name": "Киров, Пугачева, 30",
    "isFolder": false,
    "isClosed": false,
    "isDeleted": false,
    "code": "000000173",
    "address": "Пугачева, 30",
    "regionId": "21c9f74e-e53e-11e7-ae44-005056991fe0",
    "lat": 58.57555,
    "lng": 49.62717
  },
  {
    "id": "caf10c54-1602-11e4-8cdf-0050569934c7",
    "name": "Контакт-центр ",
    "isFolder": false,
    "isClosed": false,
    "isDeleted": false,
    "code": "000000015",
    "address": "",
    "regionId": "",
    "lat": 0,
    "lng": 0
  },
  {
    "id": "6be926f3-fbd6-11ea-ae54-005056991fe0",
    "name": "Кемерово, Свободы, 6/4, к 1",
    "isFolder": false,
    "isClosed": false,
    "isDeleted": false,
    "code": "000000308",
    "address": "Кемерово, Свободы 6 дробь 4 корпус 1",
    "regionId": "3fab3500-d64d-11e6-8fc9-0050569911ac",
    "lat": 55.32963,
    "lng": 86.12253
  },
  {
    "id": "57c0c3b9-b295-11e9-ae51-005056991fe0",
    "name": "Кемерово, пр. Советский, 25, к. 1",
    "isFolder": false,
    "isClosed": false,
    "isDeleted": false,
    "code": "000000248",
    "address": "Проспект Советский 25 корпус 1",
    "regionId": "3fab3500-d64d-11e6-8fc9-0050569911ac",
    "lat": 55.35944,
    "lng": 86.06535
  },
  {
    "id": "fcc39db0-c417-11eb-ae56-005056871c8e",
    "name": "Костанай, Киевская, 15",
    "isFolder": false,
    "isClosed": false,
    "isDeleted": false,
    "code": "000000337",
    "address": "Костанай, Киевская, 15",
    "regionId": "b1e14bb0-c417-11eb-ae56-005056871c8e",
    "lat": 53.24036,
    "lng": 63.66682
  },
  {
    "id": "39b313fa-0779-11eb-ae54-005056991fe0",
    "name": "Краснодар, Суворова, 115",
    "isFolder": false,
    "isClosed": false,
    "isDeleted": false,
    "code": "000000309",
    "address": "Краснодар, Суворова, 115",
    "regionId": "308b0b5f-aeb5-11e5-84e3-0050569911ac",
    "lat": 45.02222,
    "lng": 38.98496
  },
  {
    "id": "94b8026d-4d4d-11ea-ae5a-005056876845",
    "name": "Кумертау, Бабаевская,18Б",
    "isFolder": false,
    "isClosed": false,
    "isDeleted": false,
    "code": "000000285",
    "address": " Бабаевская 18бэ помещение 2",
    "regionId": "74ebd3f9-4d4d-11ea-ae5a-005056876845",
    "lat": 52.76681,
    "lng": 55.80894
  },
  {
    "id": "f3099b24-e904-11eb-ae56-005056871c8e",
    "name": "Краснодар, Дзержинского, 125/1",
    "isFolder": false,
    "isClosed": false,
    "isDeleted": false,
    "code": "000000346",
    "address": "Краснодар, Дзержинского, 125/1",
    "regionId": "308b0b5f-aeb5-11e5-84e3-0050569911ac",
    "lat": 45.0713,
    "lng": 38.97173
  },
  {
    "id": "62aacbfe-27ed-11eb-ae54-005056871c8e",
    "name": "Караганда, Прогресса, 1/2",
    "isFolder": false,
    "isClosed": false,
    "isDeleted": false,
    "code": "000000314",
    "address": "Караганда, Прогресса, 1/2",
    "regionId": "489cba18-27ed-11eb-ae54-005056871c8e",
    "lat": 49.79451,
    "lng": 73.05604
  },
  {
    "id": "7185ea88-4422-11e9-ae4d-005056991fe0",
    "name": "Москва, Партизанская, 34",
    "isFolder": false,
    "isClosed": false,
    "isDeleted": false,
    "code": "000000209",
    "address": "Партизанская, 34",
    "regionId": "b05636d1-1f03-11e5-b196-0050569934c7",
    "lat": 55.74091,
    "lng": 37.40491
  },
  {
    "id": "9a24d2ad-a34a-11ec-ae58-005056991fe0",
    "name": "Москва, 3-й Силикатный пр-д., д4, к1, стр.1",
    "isFolder": false,
    "isClosed": false,
    "isDeleted": false,
    "code": "000000385",
    "address": "Москва, 3-й Силикатный пр-д., д4, к1, стр.1",
    "regionId": "b05636d1-1f03-11e5-b196-0050569934c7",
    "lat": 55.7682,
    "lng": 37.49853
  },
  {
    "id": "9bb1c2af-e271-11ec-ae59-005056991fe0",
    "name": "Москва, Базовская 15а",
    "isFolder": false,
    "isClosed": false,
    "isDeleted": false,
    "code": "000000396",
    "address": "Москва, Базовская 15а",
    "regionId": "b05636d1-1f03-11e5-b196-0050569934c7",
    "lat": 55.88093,
    "lng": 37.51044
  },
  {
    "id": "d44f15df-e85e-11eb-ae60-005056876845",
    "name": "Междуреченск, Юности, 13а",
    "isFolder": false,
    "isClosed": false,
    "isDeleted": false,
    "code": "000000345",
    "address": "Междуреченск, Юности, 13а",
    "regionId": "5d3fab89-7a8a-11e8-ae4a-005056991fe0",
    "lat": 53.6813,
    "lng": 88.06812
  },
  {
    "id": "4abbc017-f43c-11eb-ae57-005056991fe0",
    "name": "Кингисепп, Промзона 3-й проезд, 17, стр. 2",
    "isFolder": false,
    "isClosed": false,
    "isDeleted": false,
    "code": "000000347",
    "address": "Кингисепп, Промзона 3-й проезд, 17, стр. 2",
    "regionId": "14f603e7-f43c-11eb-ae57-005056991fe0",
    "lat": 59.37061,
    "lng": 28.62766
  },
  {
    "id": "32a6e278-0eb4-11e7-a97d-0050569911ac",
    "name": "Красноярск, Караульная, 41",
    "isFolder": false,
    "isClosed": false,
    "isDeleted": false,
    "code": "000000076",
    "address": "Караульная, 41",
    "regionId": "decbf314-8981-11e3-a76e-0050569934c7",
    "lat": 56.04535,
    "lng": 92.87835
  },
  {
    "id": "ba507d44-f51b-11e7-ae45-005056991fe0",
    "name": "Краснодар, Ялтинская, 73",
    "isFolder": false,
    "isClosed": false,
    "isDeleted": false,
    "code": "000000125",
    "address": "Ялтинская, 73",
    "regionId": "308b0b5f-aeb5-11e5-84e3-0050569911ac",
    "lat": 45.03226,
    "lng": 39.02769
  },
  {
    "id": "12f2a8dd-150e-11ec-ae56-005056871c8e",
    "name": "Кудрово, Центральная, 15А",
    "isFolder": false,
    "isClosed": false,
    "isDeleted": false,
    "code": "000000355",
    "address": "Кудрово, Центральная, 15А",
    "regionId": "e27c7bc9-1ac1-11e8-ae47-005056991fe0",
    "lat": 59.90786,
    "lng": 30.50573
  },
  {
    "id": "24f0d3ea-6a0b-11e8-ae49-005056991fe0",
    "name": "Красноярск, Новая, 13, стр.3",
    "isFolder": false,
    "isClosed": false,
    "isDeleted": false,
    "code": "000000154",
    "address": "Новая 13, строение 3",
    "regionId": "decbf314-8981-11e3-a76e-0050569934c7",
    "lat": 55.98755,
    "lng": 92.96738
  },
  {
    "id": "5fe602b1-a65b-11e6-8182-0050569911ac",
    "name": "Красноярск, Затонская, 20а",
    "isFolder": false,
    "isClosed": false,
    "isDeleted": false,
    "code": "000000063",
    "address": "Затонская, 20 а",
    "regionId": "decbf314-8981-11e3-a76e-0050569934c7",
    "lat": 55.9931,
    "lng": 92.92464
  },
  {
    "id": "f1739893-267f-11e7-a97d-0050569911ac",
    "name": "Новосибирск, Войкова, 124/Кропоткина",
    "isFolder": false,
    "isClosed": false,
    "isDeleted": false,
    "code": "000000080",
    "address": "Войкова, 124",
    "regionId": "6958b568-4686-11e3-9765-0050569934c7",
    "lat": 55.05884,
    "lng": 82.94532
  },
  {
    "id": "5d16f65c-e7bd-11e8-ae4c-005056991fe0",
    "name": "Нижний Тагил, Черноисточинское ш, 70",
    "isFolder": false,
    "isClosed": false,
    "isDeleted": false,
    "code": "000000189",
    "address": "Черноисточинское шоссе, 70",
    "regionId": "cc34ed68-d758-11e8-ae51-005056876845",
    "lat": 57.87311,
    "lng": 59.93653
  },
  {
    "id": "f5224454-03f0-11ec-ae60-005056876845",
    "name": "Москва, Пакгаузное шоссе, 6 (Коптево)",
    "isFolder": false,
    "isClosed": false,
    "isDeleted": false,
    "code": "000000350",
    "address": "Москва, Пакгаузное шоссе, 6 (Коптево)",
    "regionId": "b05636d1-1f03-11e5-b196-0050569934c7",
    "lat": 55.84303,
    "lng": 37.52552
  },
  {
    "id": "0c7f72b0-9ab6-11e7-ae44-005056991fe0",
    "name": "Новосибирск, Залесского, 23/2",
    "isFolder": false,
    "isClosed": false,
    "isDeleted": false,
    "code": "000000101",
    "address": "Залесского, 23 дробь 2",
    "regionId": "6958b568-4686-11e3-9765-0050569934c7",
    "lat": 55.07178,
    "lng": 82.91951
  },
  {
    "id": "c3b376a8-f4ac-11e9-ae52-005056991fe0",
    "name": "Новороссийск, Луначарского, 29",
    "isFolder": false,
    "isClosed": false,
    "isDeleted": false,
    "code": "000000266",
    "address": "Луначарского, 29",
    "regionId": "9ffac95e-9880-11e9-ae51-005056871c8e",
    "lat": 44.72637,
    "lng": 37.73841
  },
  {
    "id": "d35a7fef-0224-11ea-ae5a-005056876845",
    "name": "Новосибирск, Варшавская, 13а (ОбьГЭС)",
    "isFolder": false,
    "isClosed": false,
    "isDeleted": false,
    "code": "000000267",
    "address": "Варшавская, 13а",
    "regionId": "6958b568-4686-11e3-9765-0050569934c7",
    "lat": 54.85815,
    "lng": 82.96439
  },
  {
    "id": "d1264637-669c-11eb-ae5d-005056876845",
    "name": "Наро-Фоминск, Маршала Жукова, 162",
    "isFolder": false,
    "isClosed": false,
    "isDeleted": false,
    "code": "000000321",
    "address": "Наро-Фоминск, Маршала Жукова, 162",
    "regionId": "8282e309-669a-11eb-ae5d-005056876845",
    "lat": 55.37852,
    "lng": 36.69628
  },
  {
    "id": "0dd06b20-6092-11e7-b73f-0050569911ac",
    "name": "Новосибирск, КУЗОВНОЙ, Мира, 67 ",
    "isFolder": false,
    "isClosed": false,
    "isDeleted": false,
    "code": "000000092",
    "address": "Мира, 67",
    "regionId": "6958b568-4686-11e3-9765-0050569934c7",
    "lat": 54.96433,
    "lng": 82.92402
  },
  {
    "id": "f33325f4-dda3-11ec-814f-005056872826",
    "name": "Новая Адыгея, Тургеневское шоссе, 2/3",
    "isFolder": false,
    "isClosed": false,
    "isDeleted": false,
    "code": "000000394",
    "address": "Новая Адыгея, Тургеневское шоссе, 2/3",
    "regionId": "308b0b5f-aeb5-11e5-84e3-0050569911ac",
    "lat": 45.02993,
    "lng": 38.94843
  },
  {
    "id": "6f379ee2-6a7b-11e6-a0a4-0050569911ac",
    "name": "Новосибирск, Войкова, 126 (Кузовной)",
    "isFolder": false,
    "isClosed": false,
    "isDeleted": false,
    "code": "000000054",
    "address": "Войкова, 124",
    "regionId": "6958b568-4686-11e3-9765-0050569934c7",
    "lat": 55.0592,
    "lng": 82.94523
  },
  {
    "id": "0e365ca5-4dcb-11e9-ae4f-005056871c8e",
    "name": "Новосибирск, Петухова, 150А",
    "isFolder": false,
    "isClosed": false,
    "isDeleted": false,
    "code": "000000214",
    "address": "Петухова, 150 А",
    "regionId": "6958b568-4686-11e3-9765-0050569934c7",
    "lat": 54.93813,
    "lng": 82.93436
  },
  {
    "id": "b2d805c1-5fb2-11ed-814f-005056872826",
    "name": "Тула, Октябрьская, 48",
    "isFolder": false,
    "isClosed": false,
    "isDeleted": false,
    "code": "000000421",
    "address": "Тула, Октябрьская, 48",
    "regionId": "0f78d253-5faf-11ed-814f-005056872826",
    "lat": 54.2106,
    "lng": 37.61911
  },
  {
    "id": "20b03e61-64d3-11ed-ae58-005056871c8e",
    "name": "Клин, Акуловская, 1",
    "isFolder": false,
    "isClosed": false,
    "isDeleted": false,
    "code": "000000422",
    "address": "Клин, Акуловская, 1",
    "regionId": "bd659fcd-64d2-11ed-ae58-005056871c8e",
    "lat": 56.31585,
    "lng": 36.74616
  },
  {
    "id": "562c41da-6fd5-11e9-ae51-005056871c8e",
    "name": "Новокузнецк, Мира, 21б",
    "isFolder": false,
    "isClosed": false,
    "isDeleted": false,
    "code": "000000227",
    "address": "Мира 21 б",
    "regionId": "6958b576-4686-11e3-9765-0050569934c7",
    "lat": 53.90459,
    "lng": 87.13948
  },
  {
    "id": "cd287dab-6a4c-11e8-ae49-005056991fe0",
    "name": "Новосибирск, Ипподромская, 36а",
    "isFolder": false,
    "isClosed": false,
    "isDeleted": false,
    "code": "000000155",
    "address": "Ипподромская, 36а",
    "regionId": "6958b568-4686-11e3-9765-0050569934c7",
    "lat": 55.05244,
    "lng": 82.94066
  },
  {
    "id": "2293a2b8-83d3-11e3-a76e-0050569934c7",
    "name": "Новосибирск, Немировича-Данченко, 73а",
    "isFolder": false,
    "isClosed": false,
    "isDeleted": false,
    "code": "000000008",
    "address": "Немировича Данченко 73а",
    "regionId": "6958b568-4686-11e3-9765-0050569934c7",
    "lat": 54.97196,
    "lng": 82.8802
  },
  {
    "id": "2aefeb6e-7d9d-11e3-a76e-0050569934c7",
    "name": "Новосибирск, Мира, 67",
    "isFolder": false,
    "isClosed": false,
    "isDeleted": false,
    "code": "000000001",
    "address": "Мира 67",
    "regionId": "6958b568-4686-11e3-9765-0050569934c7",
    "lat": 54.96433,
    "lng": 82.92402
  },
  {
    "id": "efcc6d9e-3e15-11e4-a684-0050569934c7",
    "name": "Новосибирск, Богдана Хмельницкого, 103а",
    "isFolder": false,
    "isClosed": false,
    "isDeleted": false,
    "code": "000000017",
    "address": "Тайгинская 7 дробь 2 ",
    "regionId": "6958b568-4686-11e3-9765-0050569934c7",
    "lat": 55.10195,
    "lng": 82.98157
  },
  {
    "id": "0e8029e4-f9f5-11e8-ae52-005056876845",
    "name": "Новосибирск, Красных Зорь, 1а",
    "isFolder": false,
    "isClosed": false,
    "isDeleted": false,
    "code": "000000192",
    "address": "Красных Зорь, 1а",
    "regionId": "6958b568-4686-11e3-9765-0050569934c7",
    "lat": 55.11108,
    "lng": 82.96719
  },
  {
    "id": "786a0064-d079-11e9-ae53-005056871c8e",
    "name": "Находка, Кедровая, 1А",
    "isFolder": false,
    "isClosed": false,
    "isDeleted": false,
    "code": "000000256",
    "address": "Кедровая, 1 А",
    "regionId": "d1aae127-c57b-11e9-ae51-005056871c8e",
    "lat": 42.827,
    "lng": 132.85733
  },
  {
    "id": "79089310-9881-11e9-ae51-005056871c8e",
    "name": "Новороссийск, Куникова, 49",
    "isFolder": false,
    "isClosed": false,
    "isDeleted": false,
    "code": "000000242",
    "address": "Куникова, 49",
    "regionId": "9ffac95e-9880-11e9-ae51-005056871c8e",
    "lat": 44.692,
    "lng": 37.76602
  },
  {
    "id": "142aa36a-3cf7-11ea-ae53-005056871c8e",
    "name": "Нижний Новгород, Полтавская, 30 литера Б",
    "isFolder": false,
    "isClosed": false,
    "isDeleted": false,
    "code": "000000280",
    "address": "Полтавская, 30, Литера Бэ",
    "regionId": "5b0e63c8-9fe8-11e5-9aef-0050569911ac",
    "lat": 56.31384,
    "lng": 44.02968
  },
  {
    "id": "7f49872b-1cea-11ec-ae57-005056991fe0",
    "name": "Новосибирск, Пионерская, 31",
    "isFolder": false,
    "isClosed": false,
    "isDeleted": false,
    "code": "000000357",
    "address": "Новосибирск, Пионерская, 31",
    "regionId": "6958b568-4686-11e3-9765-0050569934c7",
    "lat": 54.95556,
    "lng": 82.97729
  },
  {
    "id": "e25b4d71-8d76-11ec-ae61-005056876845",
    "name": "Москва, Ташкентская, 28, стр. 1 (кузовной)",
    "isFolder": false,
    "isClosed": false,
    "isDeleted": false,
    "code": "000000378",
    "address": "Москва, Ташкентская, 28, стр. 1 (кузовной)",
    "regionId": "b05636d1-1f03-11e5-b196-0050569934c7",
    "lat": 55.69916,
    "lng": 37.80608
  },
  {
    "id": "2f39310f-6c47-11ed-ae58-005056871c8e",
    "name": "Волгоград, Казахская, 43",
    "isFolder": false,
    "isClosed": false,
    "isDeleted": false,
    "code": "000000423",
    "address": "Волгоград, Казахская, 43",
    "regionId": "6b56ee21-f2e2-11e8-ae4c-005056991fe0",
    "lat": 48.67613,
    "lng": 44.4305
  },
  {
    "id": "0715a554-9ed4-11ed-ae61-005056876845",
    "name": "Коломна, Астахова 2",
    "isFolder": false,
    "isClosed": false,
    "isDeleted": false,
    "code": "000000428",
    "address": "Коломна, Астахова 2",
    "regionId": "42d21f53-9ed2-11ed-ae61-005056876845",
    "lat": 55.06916,
    "lng": 38.75527
  },
  {
    "id": "e8e499dc-1ad5-11e9-ae53-005056876845",
    "name": "Пермь, Подлесная, 47а",
    "isFolder": false,
    "isClosed": false,
    "isDeleted": false,
    "code": "000000200",
    "address": "Подлесная 47 а",
    "regionId": "8babe834-1ad2-11e9-ae53-005056876845",
    "lat": 57.99623,
    "lng": 56.17162
  },
  {
    "id": "889ff055-fcc7-11e7-ae46-005056991fe0",
    "name": "Пушкино, Кудринское шоссе, 2 ст.3",
    "isFolder": false,
    "isClosed": false,
    "isDeleted": false,
    "code": "000000128",
    "address": "Кудринское шоссе, 2 строение 3",
    "regionId": "d8a22a2d-fcc5-11e7-ae46-005056991fe0",
    "lat": 55.99501,
    "lng": 37.85665
  },
  {
    "id": "e402722c-7ba7-11e9-ae51-005056991fe0",
    "name": "Астана, Пушкина, 61а",
    "isFolder": false,
    "isClosed": false,
    "isDeleted": false,
    "code": "000000232",
    "address": "Пушкина 61а",
    "regionId": "e2ca5659-7ba4-11e9-ae51-005056991fe0",
    "lat": 51.18513,
    "lng": 71.49344
  },
  {
    "id": "f5b39d8d-c3c8-11e9-ae51-005056991fe0",
    "name": "Новосибирск, Планировочная, 16а, корпус 2",
    "isFolder": false,
    "isClosed": false,
    "isDeleted": false,
    "code": "000000254",
    "address": "Планировочная, 16 А, корпус 2",
    "regionId": "6958b568-4686-11e3-9765-0050569934c7",
    "lat": 54.99558,
    "lng": 82.88551
  },
  {
    "id": "6dd7418e-3bb7-11ec-814e-005056872826",
    "name": "Новосибирск, р.п. Кольцово, Хоззона, 18",
    "isFolder": false,
    "isClosed": false,
    "isDeleted": false,
    "code": "000000362",
    "address": "Новосибирск, р.п. Кольцово, Хоззона, 18",
    "regionId": "6958b568-4686-11e3-9765-0050569934c7",
    "lat": 54.93323,
    "lng": 83.18157
  },
  {
    "id": "58591e96-a9ca-11e8-ae4b-005056876845",
    "name": "Ростов-на-Дону, Казахская, 60/2",
    "isFolder": false,
    "isClosed": false,
    "isDeleted": false,
    "code": "000000174",
    "address": "Казахская, 60 дробь 2",
    "regionId": "629148fd-b3e7-11e7-ae44-005056991fe0",
    "lat": 47.27416,
    "lng": 39.74371
  },
  {
    "id": "ec6f69e7-d2fc-11eb-ae56-005056871c8e",
    "name": "Санкт-Петербург, Витебский проспект, 106",
    "isFolder": false,
    "isClosed": false,
    "isDeleted": false,
    "code": "000000343",
    "address": "Санкт-Петербург, Витебский проспект, 106",
    "regionId": "e27c7bc9-1ac1-11e8-ae47-005056991fe0",
    "lat": 59.83584,
    "lng": 30.37251
  },
  {
    "id": "b568fe45-94b1-11e9-ae55-005056876845",
    "name": "Пермь, шоссе Космонавтов, 313",
    "isFolder": false,
    "isClosed": false,
    "isDeleted": false,
    "code": "000000241",
    "address": "Шоссе Космонавтов, 313",
    "regionId": "8babe834-1ad2-11e9-ae53-005056876845",
    "lat": 57.96157,
    "lng": 56.13687
  },
  {
    "id": "a9dddb9e-1be2-11ea-ae53-005056871c8e",
    "name": "Подольск, пр. Юных Ленинцев, 11",
    "isFolder": false,
    "isClosed": false,
    "isDeleted": false,
    "code": "000000274",
    "address": "Проспект Юных Ленинцев 11",
    "regionId": "9aee7ff0-72b3-11e7-9411-0050569911ac",
    "lat": 55.47485,
    "lng": 37.56273
  },
  {
    "id": "297bd5ff-8ef1-11e8-ae4a-005056991fe0",
    "name": "Псков, Чудская, 7",
    "isFolder": false,
    "isClosed": false,
    "isDeleted": false,
    "code": "000000168",
    "address": "Чудская, 7",
    "regionId": "e441a0ce-8e62-11e8-ae4a-005056991fe0",
    "lat": 57.83194,
    "lng": 28.29487
  },
  {
    "id": "d214469c-87e6-11e7-ab61-0050569911ac",
    "name": "Орёл, Наугорская, 20",
    "isFolder": false,
    "isClosed": false,
    "isDeleted": false,
    "code": "000000098",
    "address": "Наугорская 20",
    "regionId": "b6d60429-87ca-11e7-ab61-0050569911ac",
    "lat": 53.0031,
    "lng": 36.01706
  },
  {
    "id": "538c5ed1-4717-11ea-ae53-005056871c8e",
    "name": "Сибай, Индустриальное шоссе, 1/3",
    "isFolder": false,
    "isClosed": false,
    "isDeleted": false,
    "code": "000000284",
    "address": "Индустриальное шоссе, 1 дробь 3",
    "regionId": "396e9c3d-4717-11ea-ae53-005056871c8e",
    "lat": 52.72097,
    "lng": 58.68678
  },
  {
    "id": "dca2749f-8602-11ea-ae53-005056991fe0",
    "name": "Пенза, Измайлова, 26",
    "isFolder": false,
    "isClosed": false,
    "isDeleted": false,
    "code": "000000295",
    "address": "Измайлова,  26",
    "regionId": "aba648d2-8602-11ea-ae53-005056871c8e",
    "lat": 53.18943,
    "lng": 45.0401
  },
  {
    "id": "6ad15434-2555-11ea-ae52-005056991fe0",
    "name": "Санкт-Петербург, Южное шоссе, 37, к 1, литера \"Б\"",
    "isFolder": false,
    "isClosed": false,
    "isDeleted": false,
    "code": "000000275",
    "address": "Южное шоссе, 37 корпус 1",
    "regionId": "e27c7bc9-1ac1-11e8-ae47-005056991fe0",
    "lat": 59.86514,
    "lng": 30.42289
  },
  {
    "id": "6e357b36-284e-11ea-ae5a-005056876845",
    "name": "Ростов-на-Дону, Лесозащитная, 25",
    "isFolder": false,
    "isClosed": false,
    "isDeleted": false,
    "code": "000000276",
    "address": "Лесозащитная 25",
    "regionId": "629148fd-b3e7-11e7-ae44-005056991fe0",
    "lat": 47.27571,
    "lng": 39.788
  },
  {
    "id": "17e1ee91-a1c3-11ed-ae58-005056871c8e",
    "name": "Алматы, Толе би, 285/4",
    "isFolder": false,
    "isClosed": false,
    "isDeleted": false,
    "code": "000000429",
    "address": "Алматы, Толе би, 285/4",
    "regionId": "d83db52f-0370-11ed-814f-005056872826",
    "lat": 43.24555,
    "lng": 76.85185
  },
  {
    "id": "b472ebc3-a263-11e9-ae51-005056871c8e",
    "name": "Пятигорск, Мира, 159",
    "isFolder": false,
    "isClosed": false,
    "isDeleted": false,
    "code": "000000244",
    "address": "Мира, 159",
    "regionId": "cc82628e-a262-11e9-ae51-005056871c8e",
    "lat": 44.04019,
    "lng": 43.04354
  },
  {
    "id": "93ebb9c4-e39f-11ec-814f-005056872826",
    "name": "Павлодар, Малайсары Батыра, 76/1",
    "isFolder": false,
    "isClosed": false,
    "isDeleted": false,
    "code": "000000397",
    "address": "Павлодар, Малайсары Батыра, 76/1",
    "regionId": "a9711293-c847-11e8-ae4e-005056871c8e",
    "lat": 52.29252,
    "lng": 77.02731
  },
  {
    "id": "72bfc7dc-79d0-11ec-ae60-005056876845",
    "name": "Ростов-на-Дону, пр-кт Королёва, 1П",
    "isFolder": false,
    "isClosed": false,
    "isDeleted": false,
    "code": "000000373",
    "address": "Ростов-на-Дону, пр-кт Королёва, 1П",
    "regionId": "629148fd-b3e7-11e7-ae44-005056991fe0",
    "lat": 47.28233,
    "lng": 39.68469
  },
  {
    "id": "bbd64def-5695-11e7-b73f-0050569911ac",
    "name": "Сосновоборск, Юности, 35 ст.1",
    "isFolder": false,
    "isClosed": false,
    "isDeleted": false,
    "code": "000000091",
    "address": "Юности, 35 строение 1",
    "regionId": "4ee8eb2b-559d-11e7-b73f-0050569911ac",
    "lat": 56.1195,
    "lng": 93.32012
  },
  {
    "id": "a9ff745c-5c0b-11e9-ae51-005056871c8e",
    "name": "Самара, Владимирская, 18а",
    "isFolder": false,
    "isClosed": false,
    "isDeleted": false,
    "code": "000000218",
    "address": "Владимирская, 18 А",
    "regionId": "b2220183-1739-11e9-ae4d-005056991fe0",
    "lat": 53.19966,
    "lng": 50.13216
  },
  {
    "id": "b53629f9-a9d1-11e9-ae51-005056871c8e",
    "name": "Севастополь, Фиолентовское шоссе, 9в/2",
    "isFolder": false,
    "isClosed": false,
    "isDeleted": false,
    "code": "000000245",
    "address": "Фиолентовское шоссе 9 Вэ дробь 2",
    "regionId": "a31e9b08-a9d1-11e9-ae51-005056871c8e",
    "lat": 44.57619,
    "lng": 33.47269
  },
  {
    "id": "cdf5bf7b-0cfb-11eb-ae54-005056871c8e",
    "name": "Новотитаровская, Ленина, 149/1",
    "isFolder": false,
    "isClosed": false,
    "isDeleted": false,
    "code": "000000310",
    "address": " Ленина, 149 дробь 1",
    "regionId": "308b0b5f-aeb5-11e5-84e3-0050569911ac",
    "lat": 45.23809,
    "lng": 38.97789
  },
  {
    "id": "b7def5b8-5272-11e8-ae49-005056991fe0",
    "name": "Омск, 60 лет Победы, 14 (кузовной)",
    "isFolder": false,
    "isClosed": false,
    "isDeleted": false,
    "code": "000000147",
    "address": "60 лет Победы, 14",
    "regionId": "6958b56f-4686-11e3-9765-0050569934c7",
    "lat": 54.95555,
    "lng": 73.34325
  },
  {
    "id": "abaf6d1f-3702-11e9-ae4f-005056871c8e",
    "name": "Соликамск, Матросова, 99",
    "isFolder": false,
    "isClosed": false,
    "isDeleted": false,
    "code": "000000207",
    "address": "Матросова, 99",
    "regionId": "8d9cf14e-36fe-11e9-ae4f-005056871c8e",
    "lat": 59.70334,
    "lng": 56.734
  },
  {
    "id": "ca5ecabf-4fb6-11e9-ae4e-005056991fe0",
    "name": "Пермь, шоссе Космонавтов, 111/2",
    "isFolder": false,
    "isClosed": false,
    "isDeleted": false,
    "code": "000000215",
    "address": "шоссе Космонавтов 111 дробь 2",
    "regionId": "8babe834-1ad2-11e9-ae53-005056876845",
    "lat": 57.9908,
    "lng": 56.207
  },
  {
    "id": "1f9e9c23-a8c4-11eb-ae60-005056876845",
    "name": "Подольск, Клемента Готвальда, 4Б",
    "isFolder": false,
    "isClosed": false,
    "isDeleted": false,
    "code": "000000333",
    "address": "Подольск, Клемента Готвальда, 4Б",
    "regionId": "9aee7ff0-72b3-11e7-9411-0050569911ac",
    "lat": 55.42098,
    "lng": 37.53167
  },
  {
    "id": "bb648aed-0fd2-11e8-ae47-005056991fe0",
    "name": "Петрозаводск, Ригачина, 25А, ст.2",
    "isFolder": false,
    "isClosed": false,
    "isDeleted": false,
    "code": "000000132",
    "address": "Ригачина, 25А, строение 2",
    "regionId": "babda60d-0fcd-11e8-ae47-005056991fe0",
    "lat": 61.78148,
    "lng": 34.40282
  },
  {
    "id": "471a1a14-173a-11e9-ae4d-005056991fe0",
    "name": "Самара, Авроры, 114А, корп.7",
    "isFolder": false,
    "isClosed": false,
    "isDeleted": false,
    "code": "000000198",
    "address": "Авроры, 114 А, корпус 7",
    "regionId": "b2220183-1739-11e9-ae4d-005056991fe0",
    "lat": 53.19949,
    "lng": 50.18954
  },
  {
    "id": "fa251d55-a4cb-11ec-814f-005056872826",
    "name": "Ростов-на-Дону, Привокзальная площадь, д. 3А",
    "isFolder": false,
    "isClosed": false,
    "isDeleted": false,
    "code": "000000387",
    "address": "Ростов-на-Дону, Привокзальная площадь, д. 3А",
    "regionId": "629148fd-b3e7-11e7-ae44-005056991fe0",
    "lat": 47.21928,
    "lng": 39.69355
  },
  {
    "id": "19a9f1ed-d6a4-11e8-ae4c-005056991fe0",
    "name": "Павлодар, Мира 37/1 ( Олжабай батыра, 37/1)",
    "isFolder": false,
    "isClosed": false,
    "isDeleted": false,
    "code": "000000185",
    "address": "Мира, 37 дробь 1",
    "regionId": "a9711293-c847-11e8-ae4e-005056871c8e",
    "lat": 52.29897,
    "lng": 76.94432
  },
  {
    "id": "2087b3a8-306f-11e9-ae53-005056876845",
    "name": "Самара, Московское шоссе 17 км, строение 12",
    "isFolder": false,
    "isClosed": false,
    "isDeleted": false,
    "code": "000000205",
    "address": "Московское шоссе семнадцатый километр, строение 12",
    "regionId": "b2220183-1739-11e9-ae4d-005056991fe0",
    "lat": 53.2723,
    "lng": 50.2585
  },
  {
    "id": "cf0c88b0-87bd-11ec-ae60-005056876845",
    "name": "Симферополь, Севастопольская, 33а",
    "isFolder": false,
    "isClosed": false,
    "isDeleted": false,
    "code": "000000377",
    "address": "Симферополь, Севастопольская, 33а",
    "regionId": "ba429e7a-87bc-11ec-ae60-005056876845",
    "lat": 44.93531,
    "lng": 34.08614
  },
  {
    "id": "8cd673e4-936e-11e9-ae55-005056876845",
    "name": "Псков, Труда, 79Б",
    "isFolder": false,
    "isClosed": false,
    "isDeleted": false,
    "code": "000000240",
    "address": "Труда, 79",
    "regionId": "e441a0ce-8e62-11e8-ae4a-005056991fe0",
    "lat": 57.84097,
    "lng": 28.35402
  },
  {
    "id": "719703bd-95e8-11eb-ae56-005056871c8e",
    "name": "Павлодар, Академика Чокина, 27/18",
    "isFolder": false,
    "isClosed": false,
    "isDeleted": false,
    "code": "000000331",
    "address": "Павлодар, Академика Чокина, 27/18",
    "regionId": "a9711293-c847-11e8-ae4e-005056871c8e",
    "lat": 52.26615,
    "lng": 76.94752
  },
  {
    "id": "fc3690f8-5c8a-11ec-814e-005056872826",
    "name": "Санкт-Петербург, Краснопутиловская, 69",
    "isFolder": false,
    "isClosed": false,
    "isDeleted": false,
    "code": "000000368",
    "address": "Санкт-Петербург, Краснопутиловская, 69",
    "regionId": "e27c7bc9-1ac1-11e8-ae47-005056991fe0",
    "lat": 59.85988,
    "lng": 30.28793
  },
  {
    "id": "d9d4fff0-90a7-11e9-ae51-005056871c8e",
    "name": "Санкт-Петербург, Руставели, 13",
    "isFolder": false,
    "isClosed": false,
    "isDeleted": false,
    "code": "000000239",
    "address": "Руставели 13",
    "regionId": "e27c7bc9-1ac1-11e8-ae47-005056991fe0",
    "lat": 60.00206,
    "lng": 30.43804
  },
  {
    "id": "f0b8ee1e-fd7c-11ec-814f-005056872826",
    "name": "Омск, 2-я Кольцевая, 34",
    "isFolder": false,
    "isClosed": false,
    "isDeleted": false,
    "code": "000000403",
    "address": "Омск, 2-я Кольцевая, 34",
    "regionId": "6958b56f-4686-11e3-9765-0050569934c7",
    "lat": 55.01315,
    "lng": 73.34766
  },
  {
    "id": "5168c2bc-b6d1-11e7-ae44-005056991fe0",
    "name": "Октябрьский, Кооперативная, 1/10",
    "isFolder": false,
    "isClosed": false,
    "isDeleted": false,
    "code": "000000113",
    "address": "Кооперативная, 1 дробь 10",
    "regionId": "9dd8dcd7-b6d0-11e7-ae44-005056991fe0",
    "lat": 54.50268,
    "lng": 53.50699
  },
  {
    "id": "cbfa828e-1ac2-11e8-ae47-005056991fe0",
    "name": "Санкт-Петербург, Бухарестская, 1Б",
    "isFolder": false,
    "isClosed": false,
    "isDeleted": false,
    "code": "000000135",
    "address": "Бухаресткая, 1Б",
    "regionId": "e27c7bc9-1ac1-11e8-ae47-005056991fe0",
    "lat": 59.89108,
    "lng": 30.35899
  },
  {
    "id": "31311d5e-b104-11e9-ae51-005056871c8e",
    "name": "Рязань, Солнечная, 4Б",
    "isFolder": false,
    "isClosed": false,
    "isDeleted": false,
    "code": "000000247",
    "address": "Солнечная, 4Б",
    "regionId": "ecf240f0-b102-11e9-ae51-005056871c8e",
    "lat": 54.63656,
    "lng": 39.72543
  },
  {
    "id": "3709e4de-7040-11ed-ae61-005056876845",
    "name": "Магнитогорск, Ленина, 114/2",
    "isFolder": false,
    "isClosed": false,
    "isDeleted": false,
    "code": "000000424",
    "address": "Магнитогорск, Ленина, 114/2",
    "regionId": "e50c12be-20f4-11e8-ae47-005056991fe0",
    "lat": 53.38894,
    "lng": 58.98544
  },
  {
    "id": "6970909e-6fa9-11e8-ae49-005056991fe0",
    "name": "Ярославль, Тутаевское шоссе, 2",
    "isFolder": false,
    "isClosed": false,
    "isDeleted": false,
    "code": "000000156",
    "address": "Тутаевское шоссе, 2",
    "regionId": "67584d3e-28a5-11e7-a97d-0050569911ac",
    "lat": 57.67051,
    "lng": 39.84121
  },
  {
    "id": "a0549a2f-37b7-11e8-ae47-005056991fe0",
    "name": "Чайковский, Промышленная, 15/1",
    "isFolder": false,
    "isClosed": false,
    "isDeleted": false,
    "code": "000000141",
    "address": "Промышленная, 15 дробь 1",
    "regionId": "e3f93e34-37b6-11e8-ae47-005056991fe0",
    "lat": 56.76858,
    "lng": 54.1173
  },
  {
    "id": "1014e7ef-72d9-11e8-ae49-005056991fe0",
    "name": "Тюмень, 30 лет Победы, 87Г",
    "isFolder": false,
    "isClosed": false,
    "isDeleted": false,
    "code": "000000158",
    "address": "30 лет Победы, 87 гэ",
    "regionId": "d7111802-f569-11e5-9ae2-0050569911ac",
    "lat": 57.1206,
    "lng": 65.58823
  },
  {
    "id": "dc4c807c-d74b-11ed-ae5a-005056991fe0",
    "name": "Тольятти, Приморский бульвар, 66/2",
    "isFolder": false,
    "isClosed": false,
    "isDeleted": false,
    "code": "000000434",
    "address": "Тольятти, Приморский бульвар, 66/2",
    "regionId": "7f39cddc-4131-11e8-ae49-005056991fe0",
    "lat": 53.50945,
    "lng": 49.24772
  },
  {
    "id": "7aff4d79-5c26-11e5-a354-0050569911ac",
    "name": "Хабаровск, 60 лет Октября, 109Б",
    "isFolder": false,
    "isClosed": false,
    "isDeleted": false,
    "code": "000000034",
    "address": "60 лет Октября, 109 Бэ",
    "regionId": "1949879c-b498-11df-84ca-00215abc817d",
    "lat": 48.47701,
    "lng": 135.11378
  },
  {
    "id": "855acc41-b3bf-11eb-ae56-005056871c8e",
    "name": "Усть-Каменогорск, Маяковского, 14а",
    "isFolder": false,
    "isClosed": false,
    "isDeleted": false,
    "code": "000000335",
    "address": "Усть-Каменогорск, Маяковского, 14а",
    "regionId": "dc217ae5-341d-11ea-ae5a-005056876845",
    "lat": 49.96692,
    "lng": 82.5803
  },
  {
    "id": "fb59d490-c002-11ec-814f-005056872826",
    "name": "Новосибирск, Гусинобродское шоссе, 60/1",
    "isFolder": false,
    "isClosed": false,
    "isDeleted": false,
    "code": "000000391",
    "address": "Новосибирск, Гусинобродское шоссе, 60/1",
    "regionId": "6958b568-4686-11e3-9765-0050569934c7",
    "lat": 55.03611,
    "lng": 83.00871
  },
  {
    "id": "86b21c47-0a27-11ec-ae57-005056991fe0",
    "name": "Учалы, Энергетиков, 7/1",
    "isFolder": false,
    "isClosed": false,
    "isDeleted": false,
    "code": "000000353",
    "address": "Учалы, Энергетиков, 7/1",
    "regionId": "518c2c1f-0a26-11ec-ae57-005056991fe0",
    "lat": 54.3063,
    "lng": 59.38261
  },
  {
    "id": "509bf60e-83d0-11ec-ae60-005056876845",
    "name": "Уральск, Шолохова, 11/1 (кузовной)",
    "isFolder": false,
    "isClosed": false,
    "isDeleted": false,
    "code": "000000374",
    "address": "Уральск, Шолохова, 11/1 (кузовной)",
    "regionId": "9d1a50dc-1817-11eb-ae5b-005056876845",
    "lat": 51.24666,
    "lng": 51.38336
  },